header: 
  seq: 5610
  stamp: 
    secs: 1690956356
    nsecs: 282984000
  frame_id: "laser_frame"
segments: 
  - 
    first_point: 
      x: -1.530464166174572
      y: -2.8923027458621204
      z: 0.0
    last_point: 
      x: -0.637472265989391
      y: -2.960093653116426
      z: 0.0
  - 
    first_point: 
      x: -0.3359486898074637
      y: -2.979365379429991
      z: 0.0
    last_point: 
      x: 0.03764866584408523
      y: -3.010563435553742
      z: 0.0
circles: 
  - 
    center: 
      x: 0.1387657996573602
      y: 0.1564358677447419
      z: 0.0
    velocity: 
      x: 0.0
      y: 0.0
      z: 0.0
    radius: 0.42309360989218914
    true_radius: 0.17309360989218914
  - 
    center: 
      x: -1.3431289820360504
      y: 0.3234098956780512
      z: 0.0
    velocity: 
      x: 0.0
      y: 0.0
      z: 0.0
    radius: 0.5047219268946758
    true_radius: 0.25472192689467577
---
header: 
  seq: 5611
  stamp: 
    secs: 1690956356
    nsecs: 382384000
  frame_id: "laser_frame"
segments: 
  - 
    first_point: 
      x: -1.4889967087993914
      y: -2.91008436646941
      z: 0.0
    last_point: 
      x: -0.6756428108575909
      y: -2.9582638878922665
      z: 0.0
circles: 
  - 
    center: 
      x: -0.18177616445588218
      y: -3.110127651396994
      z: 0.0
    velocity: 
      x: 0.0
      y: 0.0
      z: 0.0
    radius: 0.48745328399426624
    true_radius: 0.23745328399426624
  - 
    center: 
      x: 0.13369721456569653
      y: 0.1607942579484513
      z: 0.0
    velocity: 
      x: 0.0
      y: 0.0
      z: 0.0
    radius: 0.4224010690629979
    true_radius: 0.1724010690629979
  - 
    center: 
      x: -0.025636691549522188
      y: 0.5469330489015014
      z: 0.0
    velocity: 
      x: 0.0
      y: 0.0
      z: 0.0
    radius: 0.3353343928503223
    true_radius: 0.0853343928503223
  - 
    center: 
      x: -1.344081602716116
      y: 0.3253391914281981
      z: 0.0
    velocity: 
      x: 0.0
      y: 0.0
      z: 0.0
    radius: 0.5048688533695185
    true_radius: 0.2548688533695185
---
header: 
  seq: 5612
  stamp: 
    secs: 1690956356
    nsecs: 481784000
  frame_id: "laser_frame"
segments: 
  - 
    first_point: 
      x: -5.95159885502076
      y: -1.7610469138067972
      z: 0.0
    last_point: 
      x: -6.058023666948044
      y: -2.5673100126833353
      z: 0.0
  - 
    first_point: 
      x: -1.4809961685734105
      y: -2.9020947549192773
      z: 0.0
    last_point: 
      x: -0.636905504810359
      y: -2.959750526964704
      z: 0.0
circles: 
  - 
    center: 
      x: -0.22050737350111851
      y: -3.0868913111079066
      z: 0.0
    velocity: 
      x: 0.0
      y: 0.0
      z: 0.0
    radius: 0.4447057615185748
    true_radius: 0.19470576151857483
  - 
    center: 
      x: 0.13041142677378403
      y: 0.15802601062674543
      z: 0.0
    velocity: 
      x: 0.0
      y: 0.0
      z: 0.0
    radius: 0.4152784643497549
    true_radius: 0.1652784643497549
  - 
    center: 
      x: -0.025148217631012222
      y: 0.5425769733139094
      z: 0.0
    velocity: 
      x: 0.0
      y: 0.0
      z: 0.0
    radius: 0.3293864352588863
    true_radius: 0.07938643525888628
  - 
    center: 
      x: -1.3376043003623965
      y: 0.3046042349279152
      z: 0.0
    velocity: 
      x: 0.0
      y: 0.0
      z: 0.0
    radius: 0.4846373535209799
    true_radius: 0.23463735352097992
---
header: 
  seq: 5613
  stamp: 
    secs: 1690956356
    nsecs: 581184000
  frame_id: "laser_frame"
segments: 
  - 
    first_point: 
      x: -5.865302458292395
      y: -1.6116310675637961
      z: 0.0
    last_point: 
      x: -6.0474837440442375
      y: -2.4405711125070173
      z: 0.0
  - 
    first_point: 
      x: -1.5229536271071822
      y: -2.894810073219943
      z: 0.0
    last_point: 
      x: -0.673605591917602
      y: -2.953829605882349
      z: 0.0
circles: 
  - 
    center: 
      x: -0.1538167916691554
      y: -3.105607768304048
      z: 0.0
    velocity: 
      x: 0.0
      y: 0.0
      z: 0.0
    radius: 0.4667788571111504
    true_radius: 0.2167788571111504
  - 
    center: 
      x: 0.1484287612725997
      y: 0.1262008436107192
      z: 0.0
    velocity: 
      x: 0.0
      y: 0.0
      z: 0.0
    radius: 0.41861847825413495
    true_radius: 0.16861847825413495
  - 
    center: 
      x: -1.3404516218725462
      y: 0.33465482846576006
      z: 0.0
    velocity: 
      x: 0.0
      y: 0.0
      z: 0.0
    radius: 0.4976099356778778
    true_radius: 0.2476099356778778
---
header: 
  seq: 5614
  stamp: 
    secs: 1690956356
    nsecs: 680784000
  frame_id: "laser_frame"
segments: 
  - 
    first_point: 
      x: -5.938136429408241
      y: -1.6631196659053822
      z: 0.0
    last_point: 
      x: -6.050690897046031
      y: -2.457894864883778
      z: 0.0
  - 
    first_point: 
      x: -1.5294092239061483
      y: -2.89423782883459
      z: 0.0
    last_point: 
      x: -0.6764028803877561
      y: -2.9567659005605713
      z: 0.0
  - 
    first_point: 
      x: -0.3738532799638358
      y: -2.983800504445599
      z: 0.0
    last_point: 
      x: 0.0374926381319327
      y: -3.0114086169844723
      z: 0.0
circles: 
  - 
    center: 
      x: 0.14974464544605384
      y: 0.14532142165828005
      z: 0.0
    velocity: 
      x: 0.0
      y: 0.0
      z: 0.0
    radius: 0.4237817910373583
    true_radius: 0.1737817910373583
  - 
    center: 
      x: -0.021832266863122913
      y: 0.5369133326655379
      z: 0.0
    velocity: 
      x: 0.0
      y: 0.0
      z: 0.0
    radius: 0.3261026508934066
    true_radius: 0.07610265089340662
  - 
    center: 
      x: -1.3393229471037467
      y: 0.3331552640985386
      z: 0.0
    velocity: 
      x: 0.0
      y: 0.0
      z: 0.0
    radius: 0.49629618042276624
    true_radius: 0.24629618042276624
---
header: 
  seq: 5615
  stamp: 
    secs: 1690956356
    nsecs: 780184000
  frame_id: "laser_frame"
segments: 
  - 
    first_point: 
      x: -5.947462913494428
      y: -1.7568590933156558
      z: 0.0
    last_point: 
      x: -6.029627093731896
      y: -2.551643828630131
      z: 0.0
  - 
    first_point: 
      x: -1.4894128662953106
      y: -2.910556771495505
      z: 0.0
    last_point: 
      x: -0.6742268476844081
      y: -2.9567720757342735
      z: 0.0
circles: 
  - 
    center: 
      x: -0.18135174254917566
      y: -3.110709174848222
      z: 0.0
    velocity: 
      x: 0.0
      y: 0.0
      z: 0.0
    radius: 0.487915959176056
    true_radius: 0.237915959176056
  - 
    center: 
      x: 0.13234346575365769
      y: 0.16467567258838017
      z: 0.0
    velocity: 
      x: 0.0
      y: 0.0
      z: 0.0
    radius: 0.42196071332413015
    true_radius: 0.17196071332413015
  - 
    center: 
      x: -0.02623328890226811
      y: 0.5473644985306848
      z: 0.0
    velocity: 
      x: 0.0
      y: 0.0
      z: 0.0
    radius: 0.33543444471050143
    true_radius: 0.08543444471050143
  - 
    center: 
      x: -1.3435096989946298
      y: 0.3271055438732254
      z: 0.0
    velocity: 
      x: 0.0
      y: 0.0
      z: 0.0
    radius: 0.5045970957014325
    true_radius: 0.2545970957014325
---
header: 
  seq: 5616
  stamp: 
    secs: 1690956356
    nsecs: 879584000
  frame_id: "laser_frame"
segments: 
  - 
    first_point: 
      x: -5.950062653835556
      y: -1.7610285467685207
      z: 0.0
    last_point: 
      x: -6.045012891653311
      y: -2.5645282434613517
      z: 0.0
  - 
    first_point: 
      x: -1.496166829279369
      y: -2.888458840921054
      z: 0.0
    last_point: 
      x: -0.6760406290276438
      y: -2.9648897832271746
      z: 0.0
circles: 
  - 
    center: 
      x: 0.13370599011676854
      y: 0.15286314567035383
      z: 0.0
    velocity: 
      x: 0.0
      y: 0.0
      z: 0.0
    radius: 0.4159360965152046
    true_radius: 0.16593609651520458
  - 
    center: 
      x: -1.344251792607179
      y: 0.32450574827619477
      z: 0.0
    velocity: 
      x: 0.0
      y: 0.0
      z: 0.0
    radius: 0.5039638899634172
    true_radius: 0.25396388996341723
---
header: 
  seq: 5617
  stamp: 
    secs: 1690956356
    nsecs: 978984000
  frame_id: "laser_frame"
segments: 
  - 
    first_point: 
      x: -6.035275642111687
      y: -1.7728143100066955
      z: 0.0
    last_point: 
      x: -5.877798589174613
      y: -2.6220147163399394
      z: 0.0
  - 
    first_point: 
      x: -1.5210500930058923
      y: -2.8883962662629035
      z: 0.0
    last_point: 
      x: -0.6758789274802102
      y: -2.9584314524371766
      z: 0.0
circles: 
  - 
    center: 
      x: -0.19681683210869177
      y: -3.102957779027041
      z: 0.0
    velocity: 
      x: 0.0
      y: 0.0
      z: 0.0
    radius: 0.46677505735910324
    true_radius: 0.21677505735910324
  - 
    center: 
      x: 0.14783421231428773
      y: 0.1333657915868241
      z: 0.0
    velocity: 
      x: 0.0
      y: 0.0
      z: 0.0
    radius: 0.42503641060051
    true_radius: 0.17503641060051
  - 
    center: 
      x: -1.3446557683236644
      y: 0.3249859247881479
      z: 0.0
    velocity: 
      x: 0.0
      y: 0.0
      z: 0.0
    radius: 0.50607437651773
    true_radius: 0.25607437651773
---
header: 
  seq: 5618
  stamp: 
    secs: 1690956357
    nsecs:  78384000
  frame_id: "laser_frame"
segments: 
  - 
    first_point: 
      x: -1.5258593038951418
      y: -2.889194212048947
      z: 0.0
    last_point: 
      x: -0.6377498057249916
      y: -2.9679890399717297
      z: 0.0
circles: 
  - 
    center: 
      x: -0.1843489932670894
      y: -3.10578798002344
      z: 0.0
    velocity: 
      x: 0.0
      y: 0.0
      z: 0.0
    radius: 0.488109171001363
    true_radius: 0.23810917100136297
  - 
    center: 
      x: 0.14393619418271417
      y: 0.15337461786298714
      z: 0.0
    velocity: 
      x: 0.0
      y: 0.0
      z: 0.0
    radius: 0.4231001373219274
    true_radius: 0.17310013732192742
  - 
    center: 
      x: -0.029982458008204062
      y: 0.5485899987649093
      z: 0.0
    velocity: 
      x: 0.0
      y: 0.0
      z: 0.0
    radius: 0.34231913053251445
    true_radius: 0.09231913053251445
  - 
    center: 
      x: -1.3399667048548243
      y: 0.33251409138058285
      z: 0.0
    velocity: 
      x: 0.0
      y: 0.0
      z: 0.0
    radius: 0.49671383851811335
    true_radius: 0.24671383851811335
---
header: 
  seq: 5619
  stamp: 
    secs: 1690956357
    nsecs: 181476000
  frame_id: "laser_frame"
segments: 
  - 
    first_point: 
      x: -1.4822695947266797
      y: -2.8964798031528924
      z: 0.0
    last_point: 
      x: -0.6375427974450575
      y: -2.964472838581478
      z: 0.0
circles: 
  - 
    center: 
      x: -0.20583173199112392
      y: -3.0936614113604888
      z: 0.0
    velocity: 
      x: 0.0
      y: 0.0
      z: 0.0
    radius: 0.467430217233758
    true_radius: 0.217430217233758
  - 
    center: 
      x: 0.14139101150915406
      y: 0.15433652814280935
      z: 0.0
    velocity: 
      x: 0.0
      y: 0.0
      z: 0.0
    radius: 0.42338971107876866
    true_radius: 0.17338971107876866
  - 
    center: 
      x: -1.346096493388529
      y: 0.32302146014290356
      z: 0.0
    velocity: 
      x: 0.0
      y: 0.0
      z: 0.0
    radius: 0.5043395682554335
    true_radius: 0.25433956825543347
---
header: 
  seq: 5620
  stamp: 
    secs: 1690956357
    nsecs: 280876000
  frame_id: "laser_frame"
segments: 
  - 
    first_point: 
      x: -6.03781290035077
      y: -2.0280206448459395
      z: 0.0
    last_point: 
      x: -5.81852713325393
      y: -2.6938539075817944
      z: 0.0
  - 
    first_point: 
      x: -1.5264055587952547
      y: -2.8915083849806913
      z: 0.0
    last_point: 
      x: -0.6740158272746177
      y: -2.95690292095741
      z: 0.0
circles: 
  - 
    center: 
      x: -0.17922705423083263
      y: -3.107307721325112
      z: 0.0
    velocity: 
      x: 0.0
      y: 0.0
      z: 0.0
    radius: 0.4871356096932228
    true_radius: 0.23713560969322278
  - 
    center: 
      x: 0.12386005999409193
      y: 0.16597256341978403
      z: 0.0
    velocity: 
      x: 0.0
      y: 0.0
      z: 0.0
    radius: 0.41393192525283545
    true_radius: 0.16393192525283545
  - 
    center: 
      x: -0.02670708997608485
      y: 0.5460284700792304
      z: 0.0
    velocity: 
      x: 0.0
      y: 0.0
      z: 0.0
    radius: 0.33528319624759434
    true_radius: 0.08528319624759434
  - 
    center: 
      x: -1.3414991069785513
      y: 0.3336668264196768
      z: 0.0
    velocity: 
      x: 0.0
      y: 0.0
      z: 0.0
    radius: 0.4963120274501247
    true_radius: 0.2463120274501247
---
header: 
  seq: 5621
  stamp: 
    secs: 1690956357
    nsecs: 380276000
  frame_id: "laser_frame"
segments: 
  - 
    first_point: 
      x: -1.4869924271583548
      y: -2.909654566947546
      z: 0.0
    last_point: 
      x: -0.6383076905452962
      y: -2.9630705662073042
      z: 0.0
circles: 
  - 
    center: 
      x: -0.1835397769257657
      y: -3.110958627695495
      z: 0.0
    velocity: 
      x: 0.0
      y: 0.0
      z: 0.0
    radius: 0.4876274403024032
    true_radius: 0.23762744030240318
  - 
    center: 
      x: 0.1437838808455636
      y: 0.148443545300165
      z: 0.0
    velocity: 
      x: 0.0
      y: 0.0
      z: 0.0
    radius: 0.4233829239228355
    true_radius: 0.1733829239228355
  - 
    center: 
      x: -1.3444418382887764
      y: 0.3253276233246517
      z: 0.0
    velocity: 
      x: 0.0
      y: 0.0
      z: 0.0
    radius: 0.5045016161170867
    true_radius: 0.25450161611708666
---
header: 
  seq: 5622
  stamp: 
    secs: 1690956357
    nsecs: 479676000
  frame_id: "laser_frame"
segments: 
  - 
    first_point: 
      x: -5.9444994997216245
      y: -1.7544524621783046
      z: 0.0
    last_point: 
      x: -6.018602573438723
      y: -2.5406278666355733
      z: 0.0
  - 
    first_point: 
      x: -1.485572709883015
      y: -2.906361059664423
      z: 0.0
    last_point: 
      x: -0.6739018623093085
      y: -2.956464289446346
      z: 0.0
circles: 
  - 
    center: 
      x: -0.1834710185995492
      y: -3.1078627201182587
      z: 0.0
    velocity: 
      x: 0.0
      y: 0.0
      z: 0.0
    radius: 0.48856047669001423
    true_radius: 0.23856047669001423
  - 
    center: 
      x: 0.12476456569492991
      y: 0.17386809597051062
      z: 0.0
    velocity: 
      x: 0.0
      y: 0.0
      z: 0.0
    radius: 0.42029919486742456
    true_radius: 0.17029919486742456
  - 
    center: 
      x: -1.343306560373097
      y: 0.3266299377808962
      z: 0.0
    velocity: 
      x: 0.0
      y: 0.0
      z: 0.0
    radius: 0.5040792132759765
    true_radius: 0.2540792132759765
---
header: 
  seq: 5623
  stamp: 
    secs: 1690956357
    nsecs: 579076000
  frame_id: "laser_frame"
segments: 
  - 
    first_point: 
      x: -5.9400249703545525
      y: -1.7559291650869437
      z: 0.0
    last_point: 
      x: -6.037924819239834
      y: -2.5509963152591615
      z: 0.0
  - 
    first_point: 
      x: -1.4849158196222483
      y: -2.9094873177738303
      z: 0.0
    last_point: 
      x: -0.636873221907502
      y: -2.959115009540411
      z: 0.0
circles: 
  - 
    center: 
      x: -0.15454630596872115
      y: -3.105785927589952
      z: 0.0
    velocity: 
      x: 0.0
      y: 0.0
      z: 0.0
    radius: 0.4664723575113388
    true_radius: 0.2164723575113388
  - 
    center: 
      x: 0.1271087938812356
      y: 0.16265935942926377
      z: 0.0
    velocity: 
      x: 0.0
      y: 0.0
      z: 0.0
    radius: 0.41479253781926695
    true_radius: 0.16479253781926695
  - 
    center: 
      x: -1.34091082766643
      y: 0.3155555364699804
      z: 0.0
    velocity: 
      x: 0.0
      y: 0.0
      z: 0.0
    radius: 0.4952075402848408
    true_radius: 0.24520754028484082
---
header: 
  seq: 5624
  stamp: 
    secs: 1690956357
    nsecs: 678476000
  frame_id: "laser_frame"
segments: 
  - 
    first_point: 
      x: -1.5246617239102096
      y: -2.9042611389406825
      z: 0.0
    last_point: 
      x: -0.6374751746994084
      y: -2.9592235293626805
      z: 0.0
circles: 
  - 
    center: 
      x: -0.18582301120861638
      y: -3.1087462564095767
      z: 0.0
    velocity: 
      x: 0.0
      y: 0.0
      z: 0.0
    radius: 0.4887515141780977
    true_radius: 0.2387515141780977
  - 
    center: 
      x: 0.14146506026726474
      y: 0.14196875915389162
      z: 0.0
    velocity: 
      x: 0.0
      y: 0.0
      z: 0.0
    radius: 0.42361964286123976
    true_radius: 0.17361964286123976
  - 
    center: 
      x: -1.3427749173655625
      y: 0.32398233404994575
      z: 0.0
    velocity: 
      x: 0.0
      y: 0.0
      z: 0.0
    radius: 0.5041458082720065
    true_radius: 0.2541458082720065
---
header: 
  seq: 5625
  stamp: 
    secs: 1690956357
    nsecs: 777876000
  frame_id: "laser_frame"
segments: 
  - 
    first_point: 
      x: -1.5292696960084227
      y: -2.8976374900631385
      z: 0.0
    last_point: 
      x: -0.6754883255146661
      y: -2.9626526378509532
      z: 0.0
circles: 
  - 
    center: 
      x: -0.18544692711958813
      y: -3.1092435842303074
      z: 0.0
    velocity: 
      x: 0.0
      y: 0.0
      z: 0.0
    radius: 0.48830570503863624
    true_radius: 0.23830570503863624
  - 
    center: 
      x: 0.12773216453446878
      y: 0.16922628316882415
      z: 0.0
    velocity: 
      x: 0.0
      y: 0.0
      z: 0.0
    radius: 0.4210967444069048
    true_radius: 0.1710967444069048
  - 
    center: 
      x: -0.02553165432615558
      y: 0.5460408332123247
      z: 0.0
    velocity: 
      x: 0.0
      y: 0.0
      z: 0.0
    radius: 0.33539328152515846
    true_radius: 0.08539328152515846
  - 
    center: 
      x: -1.3446126551085962
      y: 0.32435407736576755
      z: 0.0
    velocity: 
      x: 0.0
      y: 0.0
      z: 0.0
    radius: 0.504333216925749
    true_radius: 0.25433321692574895
---
header: 
  seq: 5626
  stamp: 
    secs: 1690956357
    nsecs: 877276000
  frame_id: "laser_frame"
segments: 
  - 
    first_point: 
      x: -1.5252058753848434
      y: -2.905279681885134
      z: 0.0
    last_point: 
      x: -0.6382904839614486
      y: -2.962967830453571
      z: 0.0
circles: 
  - 
    center: 
      x: -0.21056983128991513
      y: -3.0883106487934
      z: 0.0
    velocity: 
      x: 0.0
      y: 0.0
      z: 0.0
    radius: 0.46717400996531044
    true_radius: 0.21717400996531044
  - 
    center: 
      x: 0.12780672947992144
      y: 0.1629918386920192
      z: 0.0
    velocity: 
      x: 0.0
      y: 0.0
      z: 0.0
    radius: 0.4148724126393388
    true_radius: 0.16487241263933877
  - 
    center: 
      x: -1.3408339181513054
      y: 0.3145487354619845
      z: 0.0
    velocity: 
      x: 0.0
      y: 0.0
      z: 0.0
    radius: 0.49355680765251575
    true_radius: 0.24355680765251575
---
header: 
  seq: 5627
  stamp: 
    secs: 1690956357
    nsecs: 976676000
  frame_id: "laser_frame"
segments: 
  - 
    first_point: 
      x: -6.000321040804157
      y: -1.8450928079317943
      z: 0.0
    last_point: 
      x: -5.944734936163588
      y: -2.637941611877939
      z: 0.0
  - 
    first_point: 
      x: -1.4846709076835027
      y: -2.9038401476058793
      z: 0.0
    last_point: 
      x: -0.636016580515372
      y: -2.9614942167298532
      z: 0.0
circles: 
  - 
    center: 
      x: -0.1831637598616011
      y: -3.1113874688119965
      z: 0.0
    velocity: 
      x: 0.0
      y: 0.0
      z: 0.0
    radius: 0.48827952314850376
    true_radius: 0.23827952314850376
  - 
    center: 
      x: 0.13211451874869268
      y: 0.16550190907793327
      z: 0.0
    velocity: 
      x: 0.0
      y: 0.0
      z: 0.0
    radius: 0.42186803935227024
    true_radius: 0.17186803935227024
  - 
    center: 
      x: -1.3410971731168273
      y: 0.33373926038685847
      z: 0.0
    velocity: 
      x: 0.0
      y: 0.0
      z: 0.0
    radius: 0.49613582647931
    true_radius: 0.24613582647930998
---
header: 
  seq: 5628
  stamp: 
    secs: 1690956358
    nsecs:  76076000
  frame_id: "laser_frame"
segments: 
  - 
    first_point: 
      x: -1.5095860861618244
      y: -2.8913770865883284
      z: 0.0
    last_point: 
      x: -0.6756716384480089
      y: -2.962653592652327
      z: 0.0
circles: 
  - 
    center: 
      x: -0.19419208798840515
      y: -3.1041822739878007
      z: 0.0
    velocity: 
      x: 0.0
      y: 0.0
      z: 0.0
    radius: 0.4664452400957432
    true_radius: 0.21644524009574317
  - 
    center: 
      x: 0.15171598662063723
      y: 0.14903601334172517
      z: 0.0
    velocity: 
      x: 0.0
      y: 0.0
      z: 0.0
    radius: 0.4245500883859736
    true_radius: 0.17455008838597358
  - 
    center: 
      x: -0.02998373022535747
      y: 0.5447562487410702
      z: 0.0
    velocity: 
      x: 0.0
      y: 0.0
      z: 0.0
    radius: 0.3325792033310116
    true_radius: 0.0825792033310116
  - 
    center: 
      x: -1.3410491360328551
      y: 0.3157557490453198
      z: 0.0
    velocity: 
      x: 0.0
      y: 0.0
      z: 0.0
    radius: 0.49534931387005826
    true_radius: 0.24534931387005826
---
header: 
  seq: 5629
  stamp: 
    secs: 1690956358
    nsecs: 175476000
  frame_id: "laser_frame"
segments: 
  - 
    first_point: 
      x: -1.522594678510349
      y: -2.8961887016168024
      z: 0.0
    last_point: 
      x: -0.7111697320346282
      y: -2.9503048672919197
      z: 0.0
circles: 
  - 
    center: 
      x: -0.17724777800698413
      y: -3.1150830381925405
      z: 0.0
    velocity: 
      x: 0.0
      y: 0.0
      z: 0.0
    radius: 0.48838038544366913
    true_radius: 0.23838038544366913
  - 
    center: 
      x: 0.13577565944471767
      y: 0.15816695108570475
      z: 0.0
    velocity: 
      x: 0.0
      y: 0.0
      z: 0.0
    radius: 0.42324711924429503
    true_radius: 0.17324711924429503
  - 
    center: 
      x: -0.030149089901645772
      y: 0.5546341103962507
      z: 0.0
    velocity: 
      x: 0.0
      y: 0.0
      z: 0.0
    radius: 0.34556910489085735
    true_radius: 0.09556910489085735
  - 
    center: 
      x: -1.3441859292787957
      y: 0.3246992396251364
      z: 0.0
    velocity: 
      x: 0.0
      y: 0.0
      z: 0.0
    radius: 0.5062841702210439
    true_radius: 0.2562841702210439
---
header: 
  seq: 5630
  stamp: 
    secs: 1690956358
    nsecs: 274876000
  frame_id: "laser_frame"
segments: 
  - 
    first_point: 
      x: -1.5275215455278053
      y: -2.896522185660678
      z: 0.0
    last_point: 
      x: -0.6742381950204721
      y: -2.954023799816473
      z: 0.0
  - 
    first_point: 
      x: -0.3371197016304495
      y: -2.9918954023097037
      z: 0.0
    last_point: 
      x: 0.037752010236481705
      y: -3.0041525123215544
      z: 0.0
circles: 
  - 
    center: 
      x: 0.1298962375233183
      y: 0.1669394333151656
      z: 0.0
    velocity: 
      x: 0.0
      y: 0.0
      z: 0.0
    radius: 0.4152543784751993
    true_radius: 0.1652543784751993
  - 
    center: 
      x: -0.031044431507195863
      y: 0.5500049073406509
      z: 0.0
    velocity: 
      x: 0.0
      y: 0.0
      z: 0.0
    radius: 0.34424823312802
    true_radius: 0.09424823312802
  - 
    center: 
      x: -1.3445720066966065
      y: 0.32500597275449333
      z: 0.0
    velocity: 
      x: 0.0
      y: 0.0
      z: 0.0
    radius: 0.5054545967748036
    true_radius: 0.25545459677480364
---
header: 
  seq: 5631
  stamp: 
    secs: 1690956358
    nsecs: 374476000
  frame_id: "laser_frame"
segments: 
  - 
    first_point: 
      x: -1.529532433465423
      y: -2.890881069234752
      z: 0.0
    last_point: 
      x: -0.6384307841146541
      y: -2.9641610068839297
      z: 0.0
circles: 
  - 
    center: 
      x: -0.1894312314626279
      y: -3.105623116710315
      z: 0.0
    velocity: 
      x: 0.0
      y: 0.0
      z: 0.0
    radius: 0.4893716869065182
    true_radius: 0.23937168690651822
  - 
    center: 
      x: 0.13916052156155462
      y: 0.15490793444091694
      z: 0.0
    velocity: 
      x: 0.0
      y: 0.0
      z: 0.0
    radius: 0.42322156172976766
    true_radius: 0.17322156172976766
  - 
    center: 
      x: -1.343527449260573
      y: 0.32296044172653465
      z: 0.0
    velocity: 
      x: 0.0
      y: 0.0
      z: 0.0
    radius: 0.505314856390217
    true_radius: 0.255314856390217
---
header: 
  seq: 5632
  stamp: 
    secs: 1690956358
    nsecs: 473876000
  frame_id: "laser_frame"
segments: 
  - 
    first_point: 
      x: -1.4892985353572548
      y: -2.908093557410301
      z: 0.0
    last_point: 
      x: -0.6754233777332327
      y: -2.9600349479208217
      z: 0.0
circles: 
  - 
    center: 
      x: -0.1805311906922321
      y: -3.1110177267521673
      z: 0.0
    velocity: 
      x: 0.0
      y: 0.0
      z: 0.0
    radius: 0.4875615927569701
    true_radius: 0.23756159275697009
  - 
    center: 
      x: 0.1112754850912383
      y: 0.18057504356423484
      z: 0.0
    velocity: 
      x: 0.0
      y: 0.0
      z: 0.0
    radius: 0.4176737652805085
    true_radius: 0.16767376528050848
  - 
    center: 
      x: -0.025853835595601997
      y: 0.5439850725000969
      z: 0.0
    velocity: 
      x: 0.0
      y: 0.0
      z: 0.0
    radius: 0.3331814399707012
    true_radius: 0.08318143997070121
  - 
    center: 
      x: -1.3435895051550115
      y: 0.32513712077803153
      z: 0.0
    velocity: 
      x: 0.0
      y: 0.0
      z: 0.0
    radius: 0.5043021839898219
    true_radius: 0.25430218398982185
---
header: 
  seq: 5633
  stamp: 
    secs: 1690956358
    nsecs: 573276000
  frame_id: "laser_frame"
segments: 
  - 
    first_point: 
      x: -5.94008841676186
      y: -1.7575425274467777
      z: 0.0
    last_point: 
      x: -6.064904876317383
      y: -2.5673255557562897
      z: 0.0
  - 
    first_point: 
      x: -1.4818048736128846
      y: -2.901982690349709
      z: 0.0
    last_point: 
      x: -0.6756361403629871
      y: -2.9585736293598206
      z: 0.0
circles: 
  - 
    center: 
      x: -0.21557453663482745
      y: -3.088858163202178
      z: 0.0
    velocity: 
      x: 0.0
      y: 0.0
      z: 0.0
    radius: 0.4443035588408501
    true_radius: 0.1943035588408501
  - 
    center: 
      x: 0.12877463256315022
      y: 0.16516425726316863
      z: 0.0
    velocity: 
      x: 0.0
      y: 0.0
      z: 0.0
    radius: 0.41499170723647666
    true_radius: 0.16499170723647666
  - 
    center: 
      x: -0.020464587881520144
      y: 0.5443238799481563
      z: 0.0
    velocity: 
      x: 0.0
      y: 0.0
      z: 0.0
    radius: 0.3248908108349455
    true_radius: 0.07489081083494548
  - 
    center: 
      x: -1.3375308813232498
      y: 0.3045653801717081
      z: 0.0
    velocity: 
      x: 0.0
      y: 0.0
      z: 0.0
    radius: 0.48463698412538614
    true_radius: 0.23463698412538614
---
header: 
  seq: 5634
  stamp: 
    secs: 1690956358
    nsecs: 672676000
  frame_id: "laser_frame"
segments: 
  - 
    first_point: 
      x: -6.005132369830581
      y: -1.8436305526909533
      z: 0.0
    last_point: 
      x: -5.954629567614306
      y: -2.6283866720819407
      z: 0.0
  - 
    first_point: 
      x: -1.5145782195420803
      y: -2.89339510975975
      z: 0.0
    last_point: 
      x: -0.6744079613890591
      y: -2.9581402451358105
      z: 0.0
circles: 
  - 
    center: 
      x: -0.19428301883783045
      y: -3.102936149844283
      z: 0.0
    velocity: 
      x: 0.0
      y: 0.0
      z: 0.0
    radius: 0.4668704384034684
    true_radius: 0.21687043840346842
  - 
    center: 
      x: 0.1577423740544271
      y: 0.11951429735388848
      z: 0.0
    velocity: 
      x: 0.0
      y: 0.0
      z: 0.0
    radius: 0.42444362624959386
    true_radius: 0.17444362624959386
  - 
    center: 
      x: -0.027358036598278044
      y: 0.5494826951267973
      z: 0.0
    velocity: 
      x: 0.0
      y: 0.0
      z: 0.0
    radius: 0.3420092153983513
    true_radius: 0.09200921539835127
  - 
    center: 
      x: -1.3401389205079606
      y: 0.3335851146729135
      z: 0.0
    velocity: 
      x: 0.0
      y: 0.0
      z: 0.0
    radius: 0.4973642468304854
    true_radius: 0.2473642468304854
---
header: 
  seq: 5635
  stamp: 
    secs: 1690956358
    nsecs: 772076000
  frame_id: "laser_frame"
segments: 
  - 
    first_point: 
      x: -5.94709077780424
      y: -1.7554515610401364
      z: 0.0
    last_point: 
      x: -6.044630983479084
      y: -2.559667048887718
      z: 0.0
  - 
    first_point: 
      x: -1.5123592664465393
      y: -2.8932806920463903
      z: 0.0
    last_point: 
      x: -0.675594721656229
      y: -2.9618751372023406
      z: 0.0
circles: 
  - 
    center: 
      x: -0.17352615449090417
      y: -3.1152797580998564
      z: 0.0
    velocity: 
      x: 0.0
      y: 0.0
      z: 0.0
    radius: 0.48820065251964073
    true_radius: 0.23820065251964073
  - 
    center: 
      x: 0.15633643209276643
      y: 0.13461204806416244
      z: 0.0
    velocity: 
      x: 0.0
      y: 0.0
      z: 0.0
    radius: 0.4261176911274242
    true_radius: 0.1761176911274242
  - 
    center: 
      x: -0.022472284903236134
      y: 0.5417278945364455
      z: 0.0
    velocity: 
      x: 0.0
      y: 0.0
      z: 0.0
    radius: 0.327210170063927
    true_radius: 0.077210170063927
  - 
    center: 
      x: -1.344965277528224
      y: 0.3247679681604625
      z: 0.0
    velocity: 
      x: 0.0
      y: 0.0
      z: 0.0
    radius: 0.5064814369293233
    true_radius: 0.25648143692932335
---
header: 
  seq: 5636
  stamp: 
    secs: 1690956358
    nsecs: 871476000
  frame_id: "laser_frame"
segments: 
  - 
    first_point: 
      x: -5.94791249688551
      y: -1.7579620742196522
      z: 0.0
    last_point: 
      x: -6.030776587922686
      y: -2.556855118586071
      z: 0.0
  - 
    first_point: 
      x: -1.4457975015249984
      y: -2.9114815535054435
      z: 0.0
    last_point: 
      x: -0.6371632362402307
      y: -2.9588401093493113
      z: 0.0
circles: 
  - 
    center: 
      x: -0.20032242636908526
      y: -3.1006303157723707
      z: 0.0
    velocity: 
      x: 0.0
      y: 0.0
      z: 0.0
    radius: 0.46634920520568973
    true_radius: 0.21634920520568973
  - 
    center: 
      x: 0.14059474155127122
      y: 0.1501111490527551
      z: 0.0
    velocity: 
      x: 0.0
      y: 0.0
      z: 0.0
    radius: 0.42360052493997
    true_radius: 0.17360052493997002
  - 
    center: 
      x: -0.029746978733405916
      y: 0.5426331002087807
      z: 0.0
    velocity: 
      x: 0.0
      y: 0.0
      z: 0.0
    radius: 0.3325081175228327
    true_radius: 0.08250811752283271
  - 
    center: 
      x: -1.3446970903819786
      y: 0.32453208923765803
      z: 0.0
    velocity: 
      x: 0.0
      y: 0.0
      z: 0.0
    radius: 0.5060876770449887
    true_radius: 0.2560876770449887
---
header: 
  seq: 5637
  stamp: 
    secs: 1690956358
    nsecs: 970876000
  frame_id: "laser_frame"
segments: 
  - 
    first_point: 
      x: -5.9488503420116565
      y: -1.755516877669912
      z: 0.0
    last_point: 
      x: -6.018836004781673
      y: -2.538219235922187
      z: 0.0
  - 
    first_point: 
      x: -1.5220746953399897
      y: -2.886699228641738
      z: 0.0
    last_point: 
      x: -0.6362522654237194
      y: -2.9582473091774437
      z: 0.0
circles: 
  - 
    center: 
      x: -0.17938249523897504
      y: -3.1102180612854724
      z: 0.0
    velocity: 
      x: 0.0
      y: 0.0
      z: 0.0
    radius: 0.48736831119508434
    true_radius: 0.23736831119508434
  - 
    center: 
      x: 0.12221757057463381
      y: 0.1684617891862154
      z: 0.0
    velocity: 
      x: 0.0
      y: 0.0
      z: 0.0
    radius: 0.41303164295066486
    true_radius: 0.16303164295066486
  - 
    center: 
      x: -0.028277516777112578
      y: 0.5421413097531621
      z: 0.0
    velocity: 
      x: 0.0
      y: 0.0
      z: 0.0
    radius: 0.3325306627897422
    true_radius: 0.08253066278974219
  - 
    center: 
      x: -1.3393806820632188
      y: 0.3330834413500202
      z: 0.0
    velocity: 
      x: 0.0
      y: 0.0
      z: 0.0
    radius: 0.49544138464262877
    true_radius: 0.24544138464262877
---
header: 
  seq: 5638
  stamp: 
    secs: 1690956359
    nsecs:  70276000
  frame_id: "laser_frame"
segments: 
  - 
    first_point: 
      x: -5.940923975043174
      y: -1.662824939958324
      z: 0.0
    last_point: 
      x: -6.049987263184825
      y: -2.4600433174404137
      z: 0.0
  - 
    first_point: 
      x: -1.529533703581605
      y: -2.890929555797305
      z: 0.0
    last_point: 
      x: -0.6391273903633397
      y: -2.964812622958039
      z: 0.0
circles: 
  - 
    center: 
      x: -0.18845643829438927
      y: -3.1076103934305888
      z: 0.0
    velocity: 
      x: 0.0
      y: 0.0
      z: 0.0
    radius: 0.48903465388636214
    true_radius: 0.23903465388636214
  - 
    center: 
      x: 0.14233113009454681
      y: 0.15241795015465892
      z: 0.0
    velocity: 
      x: 0.0
      y: 0.0
      z: 0.0
    radius: 0.4230699649310055
    true_radius: 0.17306996493100552
  - 
    center: 
      x: -1.3446607050095698
      y: 0.3247908515837604
      z: 0.0
    velocity: 
      x: 0.0
      y: 0.0
      z: 0.0
    radius: 0.5043371951518776
    true_radius: 0.2543371951518776
---
header: 
  seq: 5639
  stamp: 
    secs: 1690956359
    nsecs: 169676000
  frame_id: "laser_frame"
segments: 
  - 
    first_point: 
      x: -5.957684533942181
      y: -1.7618210540990595
      z: 0.0
    last_point: 
      x: -6.0607998694502045
      y: -2.573407134275961
      z: 0.0
  - 
    first_point: 
      x: -1.5229953606873068
      y: -2.896082865614899
      z: 0.0
    last_point: 
      x: -0.7109934547869905
      y: -2.950211243874663
      z: 0.0
circles: 
  - 
    center: 
      x: -0.1952850124938046
      y: -3.1032374239465375
      z: 0.0
    velocity: 
      x: 0.0
      y: 0.0
      z: 0.0
    radius: 0.4667139334114383
    true_radius: 0.2167139334114383
  - 
    center: 
      x: 0.14042637870494987
      y: 0.15773648165753956
      z: 0.0
    velocity: 
      x: 0.0
      y: 0.0
      z: 0.0
    radius: 0.4236012375841139
    true_radius: 0.1736012375841139
  - 
    center: 
      x: -0.027791347907450522
      y: 0.5485074854541163
      z: 0.0
    velocity: 
      x: 0.0
      y: 0.0
      z: 0.0
    radius: 0.3432632304225056
    true_radius: 0.09326323042250562
  - 
    center: 
      x: -1.337471126973394
      y: 0.3340805814971122
      z: 0.0
    velocity: 
      x: 0.0
      y: 0.0
      z: 0.0
    radius: 0.4958560382784779
    true_radius: 0.2458560382784779
---
