header: 
  seq: 3846
  stamp: 
    secs: 1690957757
    nsecs: 333443000
  frame_id: "laser_frame"
segments: 
  - 
    first_point: 
      x: -0.8008130436830512
      y: -2.120086648108488
      z: 0.0
    last_point: 
      x: 0.05289872246578627
      y: -2.126308490614043
      z: 0.0
  - 
    first_point: 
      x: -3.0973651778101132
      y: 1.0215243397332452
      z: 0.0
    last_point: 
      x: -2.892900210241535
      y: 0.3431494070667413
      z: 0.0
circles: 
  - 
    center: 
      x: -3.2242582003818856
      y: -0.37936154151199186
      z: 0.0
    velocity: 
      x: 0.0
      y: 0.0
      z: 0.0
    radius: 0.5522294157196144
    true_radius: 0.30222941571961437
  - 
    center: 
      x: -0.4843833973770462
      y: -0.4517184478773037
      z: 0.0
    velocity: 
      x: 0.0
      y: 0.0
      z: 0.0
    radius: 0.32187874706097086
    true_radius: 0.07187874706097086
  - 
    center: 
      x: 0.1430517004122717
      y: -0.9762028436088219
      z: 0.0
    velocity: 
      x: 0.0
      y: 0.0
      z: 0.0
    radius: 0.3336769937807806
    true_radius: 0.08367699378078058
  - 
    center: 
      x: 0.14047026898868703
      y: -0.01682579283258312
      z: 0.0
    velocity: 
      x: 0.0
      y: 0.0
      z: 0.0
    radius: 0.38883021003741086
    true_radius: 0.13883021003741086
  - 
    center: 
      x: -0.440572904126039
      y: 0.5046165521515029
      z: 0.0
    velocity: 
      x: 0.0
      y: 0.0
      z: 0.0
    radius: 0.40277048262867415
    true_radius: 0.15277048262867415
---
header: 
  seq: 3847
  stamp: 
    secs: 1690957757
    nsecs: 433043000
  frame_id: "laser_frame"
segments: 
  - 
    first_point: 
      x: -0.8001209248001593
      y: -2.120796619626945
      z: 0.0
    last_point: 
      x: 0.05290087815751486
      y: -2.126408557181719
      z: 0.0
  - 
    first_point: 
      x: -3.0350523980431436
      y: 0.9719825944130515
      z: 0.0
    last_point: 
      x: -2.9631507621134214
      y: 0.005269993907385496
      z: 0.0
circles: 
  - 
    center: 
      x: -0.4847902136630092
      y: -0.4518159623065342
      z: 0.0
    velocity: 
      x: 0.0
      y: 0.0
      z: 0.0
    radius: 0.3222948867891376
    true_radius: 0.07229488678913759
  - 
    center: 
      x: 0.13820085274624758
      y: -0.9798356563080742
      z: 0.0
    velocity: 
      x: 0.0
      y: 0.0
      z: 0.0
    radius: 0.3400762299611415
    true_radius: 0.09007622996114151
  - 
    center: 
      x: 0.07868830460056317
      y: 0.11800116132029079
      z: 0.0
    velocity: 
      x: 0.0
      y: 0.0
      z: 0.0
    radius: 0.28540715776561404
    true_radius: 0.03540715776561404
  - 
    center: 
      x: -0.2947847966864931
      y: 1.4187372259976305
      z: 0.0
    velocity: 
      x: 0.0
      y: 0.0
      z: 0.0
    radius: 0.36292485023803744
    true_radius: 0.11292485023803744
  - 
    center: 
      x: -0.431701405499034
      y: 0.5004837458853251
      z: 0.0
    velocity: 
      x: 0.0
      y: 0.0
      z: 0.0
    radius: 0.39222694027629257
    true_radius: 0.14222694027629257
---
header: 
  seq: 3848
  stamp: 
    secs: 1690957757
    nsecs: 532443000
  frame_id: "laser_frame"
segments: 
  - 
    first_point: 
      x: -0.800821115767257
      y: -2.1207021119885368
      z: 0.0
    last_point: 
      x: 0.02648736972485561
      y: -2.127702297667426
      z: 0.0
  - 
    first_point: 
      x: -3.012602929350631
      y: 0.9663515540471007
      z: 0.0
    last_point: 
      x: -2.9548168770658862
      y: 0.0031911934794110865
      z: 0.0
circles: 
  - 
    center: 
      x: -0.4852371876564291
      y: -0.45147170874266707
      z: 0.0
    velocity: 
      x: 0.0
      y: 0.0
      z: 0.0
    radius: 0.32150155652225965
    true_radius: 0.07150155652225965
  - 
    center: 
      x: 0.13839999479982196
      y: -0.9800907093862915
      z: 0.0
    velocity: 
      x: 0.0
      y: 0.0
      z: 0.0
    radius: 0.3400403211059047
    true_radius: 0.09004032110590471
  - 
    center: 
      x: 0.1464265137635588
      y: -0.0022830169113810866
      z: 0.0
    velocity: 
      x: 0.0
      y: 0.0
      z: 0.0
    radius: 0.3950694439842275
    true_radius: 0.1450694439842275
  - 
    center: 
      x: -0.44010197928956757
      y: 0.5035923544723138
      z: 0.0
    velocity: 
      x: 0.0
      y: 0.0
      z: 0.0
    radius: 0.4009776543805999
    true_radius: 0.1509776543805999
---
header: 
  seq: 3849
  stamp: 
    secs: 1690957757
    nsecs: 632043000
  frame_id: "laser_frame"
segments: 
  - 
    first_point: 
      x: -2.9904767526385583
      y: 0.9041437573774435
      z: 0.0
    last_point: 
      x: -3.0948805235187447
      y: -0.6621392963630793
      z: 0.0
  - 
    first_point: 
      x: -0.8268804995869271
      y: -2.1140375614430473
      z: 0.0
    last_point: 
      x: 0.0530912830126102
      y: -2.1274136558337515
      z: 0.0
circles: 
  - 
    center: 
      x: -0.4860579134065056
      y: -0.45665973482468813
      z: 0.0
    velocity: 
      x: 0.0
      y: 0.0
      z: 0.0
    radius: 0.32615227294538385
    true_radius: 0.07615227294538385
  - 
    center: 
      x: 0.1327301083391203
      y: -0.975436457681173
      z: 0.0
    velocity: 
      x: 0.0
      y: 0.0
      z: 0.0
    radius: 0.3320636136630071
    true_radius: 0.08206361366300707
  - 
    center: 
      x: 0.1440572282725944
      y: 0.0004830448351226418
      z: 0.0
    velocity: 
      x: 0.0
      y: 0.0
      z: 0.0
    radius: 0.3883283126136703
    true_radius: 0.1383283126136703
  - 
    center: 
      x: -0.4397648323040493
      y: 0.5034246138039616
      z: 0.0
    velocity: 
      x: 0.0
      y: 0.0
      z: 0.0
    radius: 0.3995304642442673
    true_radius: 0.1495304642442673
---
header: 
  seq: 3850
  stamp: 
    secs: 1690957757
    nsecs: 731643000
  frame_id: "laser_frame"
segments: 
  - 
    first_point: 
      x: -2.9968928777007533
      y: 0.9667806460176291
      z: 0.0
    last_point: 
      x: -3.0787920775094406
      y: -0.6587601350375811
      z: 0.0
  - 
    first_point: 
      x: -0.7997739583512329
      y: -2.119299998163171
      z: 0.0
    last_point: 
      x: 0.05281907648160956
      y: -2.126914550715707
      z: 0.0
circles: 
  - 
    center: 
      x: -0.4847719761348863
      y: -0.4519378162399307
      z: 0.0
    velocity: 
      x: 0.0
      y: 0.0
      z: 0.0
    radius: 0.3222930687321941
    true_radius: 0.0722930687321941
  - 
    center: 
      x: 0.13777631561963552
      y: -0.9805179937496208
      z: 0.0
    velocity: 
      x: 0.0
      y: 0.0
      z: 0.0
    radius: 0.3402559353538068
    true_radius: 0.09025593535380683
  - 
    center: 
      x: 0.14775793845942153
      y: -0.015505469054879047
      z: 0.0
    velocity: 
      x: 0.0
      y: 0.0
      z: 0.0
    radius: 0.389031959622632
    true_radius: 0.13903195962263198
  - 
    center: 
      x: -0.4342523539230501
      y: 0.5022744491469171
      z: 0.0
    velocity: 
      x: 0.0
      y: 0.0
      z: 0.0
    radius: 0.39678434044793043
    true_radius: 0.14678434044793043
---
header: 
  seq: 3851
  stamp: 
    secs: 1690957757
    nsecs: 831043000
  frame_id: "laser_frame"
segments: 
  - 
    first_point: 
      x: -0.8241109497185273
      y: -2.1138142304156617
      z: 0.0
    last_point: 
      x: 0.05309494946663399
      y: -2.12973555923932
      z: 0.0
  - 
    first_point: 
      x: -3.10639851432849
      y: 0.9794029024333999
      z: 0.0
    last_point: 
      x: -2.9095770471701727
      y: 0.36891154499805495
      z: 0.0
circles: 
  - 
    center: 
      x: -0.4862876071010003
      y: -0.45707700336904733
      z: 0.0
    velocity: 
      x: 0.0
      y: 0.0
      z: 0.0
    radius: 0.32579747836918027
    true_radius: 0.07579747836918027
  - 
    center: 
      x: 0.1435290345748077
      y: -0.9749731937143243
      z: 0.0
    velocity: 
      x: 0.0
      y: 0.0
      z: 0.0
    radius: 0.3328327578612328
    true_radius: 0.08283275786123279
  - 
    center: 
      x: 0.14361056576646386
      y: -0.01016372012600739
      z: 0.0
    velocity: 
      x: 0.0
      y: 0.0
      z: 0.0
    radius: 0.3853543627368714
    true_radius: 0.1353543627368714
  - 
    center: 
      x: -0.432256096367532
      y: 0.49868101990525787
      z: 0.0
    velocity: 
      x: 0.0
      y: 0.0
      z: 0.0
    radius: 0.3908013628569918
    true_radius: 0.1408013628569918
---
header: 
  seq: 3852
  stamp: 
    secs: 1690957757
    nsecs: 930643000
  frame_id: "laser_frame"
segments: 
  - 
    first_point: 
      x: -0.7997744291716621
      y: -2.1190137059196634
      z: 0.0
    last_point: 
      x: 0.02649199254290423
      y: -2.1269924518214367
      z: 0.0
  - 
    first_point: 
      x: -3.0394925359556058
      y: 1.0166385414812458
      z: 0.0
    last_point: 
      x: -2.9664023941484476
      y: 0.0054648001374052475
      z: 0.0
circles: 
  - 
    center: 
      x: -0.48548112015975503
      y: -0.45043368095788944
      z: 0.0
    velocity: 
      x: 0.0
      y: 0.0
      z: 0.0
    radius: 0.3203398073394421
    true_radius: 0.07033980733944212
  - 
    center: 
      x: 0.13776182691777142
      y: -0.980033989384488
      z: 0.0
    velocity: 
      x: 0.0
      y: 0.0
      z: 0.0
    radius: 0.34027880277055705
    true_radius: 0.09027880277055705
  - 
    center: 
      x: 0.14336942577441475
      y: -0.012579282826854691
      z: 0.0
    velocity: 
      x: 0.0
      y: 0.0
      z: 0.0
    radius: 0.38873797569734403
    true_radius: 0.13873797569734403
  - 
    center: 
      x: -0.4343653365979207
      y: 0.5018707342870229
      z: 0.0
    velocity: 
      x: 0.0
      y: 0.0
      z: 0.0
    radius: 0.39622200653345147
    true_radius: 0.14622200653345147
---
header: 
  seq: 3853
  stamp: 
    secs: 1690957758
    nsecs:  30043000
  frame_id: "laser_frame"
segments: 
  - 
    first_point: 
      x: -2.966314295885063
      y: 0.8988163004412474
      z: 0.0
    last_point: 
      x: -3.082360139379695
      y: -0.6984122052270039
      z: 0.0
  - 
    first_point: 
      x: -0.8004689543974957
      y: -2.1205681569263195
      z: 0.0
    last_point: 
      x: 0.052993301213478394
      y: -2.1266261640549575
      z: 0.0
circles: 
  - 
    center: 
      x: -0.48485022943829276
      y: -0.45285298523603457
      z: 0.0
    velocity: 
      x: 0.0
      y: 0.0
      z: 0.0
    radius: 0.32229118294169895
    true_radius: 0.07229118294169895
  - 
    center: 
      x: 0.13255862115339448
      y: -0.9754735515652464
      z: 0.0
    velocity: 
      x: 0.0
      y: 0.0
      z: 0.0
    radius: 0.33211081025251077
    true_radius: 0.08211081025251077
  - 
    center: 
      x: 0.14885119545265557
      y: -6.013997669357743e-06
      z: 0.0
    velocity: 
      x: 0.0
      y: 0.0
      z: 0.0
    radius: 0.38994462238165195
    true_radius: 0.13994462238165195
  - 
    center: 
      x: -0.30150362321386265
      y: 1.416953197055195
      z: 0.0
    velocity: 
      x: 0.0
      y: 0.0
      z: 0.0
    radius: 0.3556285457079631
    true_radius: 0.1056285457079631
  - 
    center: 
      x: -0.44021669321869267
      y: 0.5036568059312151
      z: 0.0
    velocity: 
      x: 0.0
      y: 0.0
      z: 0.0
    radius: 0.401012546501915
    true_radius: 0.15101254650191498
---
header: 
  seq: 3854
  stamp: 
    secs: 1690957758
    nsecs: 129643000
  frame_id: "laser_frame"
segments: 
  - 
    first_point: 
      x: -0.7997675722637844
      y: -2.119746663364418
      z: 0.0
    last_point: 
      x: 0.05284221786073078
      y: -2.1255586945971734
      z: 0.0
  - 
    first_point: 
      x: -3.100398477076055
      y: 0.9799422081597577
      z: 0.0
    last_point: 
      x: -2.907108675819253
      y: 0.33970443341272033
      z: 0.0
circles: 
  - 
    center: 
      x: -0.4840279377690178
      y: -0.451536526264402
      z: 0.0
    velocity: 
      x: 0.0
      y: 0.0
      z: 0.0
    radius: 0.3222270045160846
    true_radius: 0.0722270045160846
  - 
    center: 
      x: 0.13805105479444618
      y: -0.9803449830316602
      z: 0.0
    velocity: 
      x: 0.0
      y: 0.0
      z: 0.0
    radius: 0.34021854143116503
    true_radius: 0.09021854143116503
  - 
    center: 
      x: 0.1444584783161362
      y: -0.003943372464768037
      z: 0.0
    velocity: 
      x: 0.0
      y: 0.0
      z: 0.0
    radius: 0.39495092069249205
    true_radius: 0.14495092069249205
  - 
    center: 
      x: -0.439657894274258
      y: 0.5037517119813457
      z: 0.0
    velocity: 
      x: 0.0
      y: 0.0
      z: 0.0
    radius: 0.40051736550978934
    true_radius: 0.15051736550978934
---
header: 
  seq: 3855
  stamp: 
    secs: 1690957758
    nsecs: 229443000
  frame_id: "laser_frame"
segments: 
  - 
    first_point: 
      x: -0.8178561039529089
      y: -2.1114075077328005
      z: 0.0
    last_point: 
      x: 0.05315330888885577
      y: -2.129042871744189
      z: 0.0
  - 
    first_point: 
      x: -3.0692695236032446
      y: 0.9655164752047003
      z: 0.0
    last_point: 
      x: -2.8993410659648617
      y: 0.37190358812618585
      z: 0.0
circles: 
  - 
    center: 
      x: -3.2374897817596584
      y: -0.38172765631678135
      z: 0.0
    velocity: 
      x: 0.0
      y: 0.0
      z: 0.0
    radius: 0.5600071313878675
    true_radius: 0.3100071313878675
  - 
    center: 
      x: -0.4863089391612841
      y: -0.45723725585903446
      z: 0.0
    velocity: 
      x: 0.0
      y: 0.0
      z: 0.0
    radius: 0.3257974984426578
    true_radius: 0.07579749844265782
  - 
    center: 
      x: 0.14904541177638597
      y: -0.9707109281006854
      z: 0.0
    velocity: 
      x: 0.0
      y: 0.0
      z: 0.0
    radius: 0.3259049122862835
    true_radius: 0.07590491228628349
  - 
    center: 
      x: 0.13781726063761346
      y: -0.014207112531703585
      z: 0.0
    velocity: 
      x: 0.0
      y: 0.0
      z: 0.0
    radius: 0.385768456083114
    true_radius: 0.135768456083114
  - 
    center: 
      x: -0.4401110506479343
      y: 0.504540067955413
      z: 0.0
    velocity: 
      x: 0.0
      y: 0.0
      z: 0.0
    radius: 0.40231074287171803
    true_radius: 0.15231074287171803
---
header: 
  seq: 3856
  stamp: 
    secs: 1690957758
    nsecs: 329043000
  frame_id: "laser_frame"
segments: 
  - 
    first_point: 
      x: -0.8018649905256612
      y: -2.1235597367838763
      z: 0.0
    last_point: 
      x: 0.05300081000540313
      y: -2.125926667413809
      z: 0.0
  - 
    first_point: 
      x: -3.0339507562860137
      y: 0.9759491844338861
      z: 0.0
    last_point: 
      x: -2.952759298123272
      y: 0.006469119791163765
      z: 0.0
circles: 
  - 
    center: 
      x: -3.2509852218276754
      y: -0.3712571329085431
      z: 0.0
    velocity: 
      x: 0.0
      y: 0.0
      z: 0.0
    radius: 0.5732769970372973
    true_radius: 0.3232769970372973
  - 
    center: 
      x: -0.4847831666661688
      y: -0.45372048725215053
      z: 0.0
    velocity: 
      x: 0.0
      y: 0.0
      z: 0.0
    radius: 0.3238173613187389
    true_radius: 0.0738173613187389
  - 
    center: 
      x: 0.13866824496242333
      y: -0.9795420344826382
      z: 0.0
    velocity: 
      x: 0.0
      y: 0.0
      z: 0.0
    radius: 0.3397115471631359
    true_radius: 0.0897115471631359
  - 
    center: 
      x: 0.14316280765701206
      y: -0.012062301521985874
      z: 0.0
    velocity: 
      x: 0.0
      y: 0.0
      z: 0.0
    radius: 0.38313110289064867
    true_radius: 0.13313110289064867
  - 
    center: 
      x: -0.4264206374524034
      y: 0.4984998244576162
      z: 0.0
    velocity: 
      x: 0.0
      y: 0.0
      z: 0.0
    radius: 0.3889686567388305
    true_radius: 0.13896865673883052
---
header: 
  seq: 3857
  stamp: 
    secs: 1690957758
    nsecs: 428643000
  frame_id: "laser_frame"
segments: 
  - 
    first_point: 
      x: -0.8008068705745499
      y: -2.1189091252189294
      z: 0.0
    last_point: 
      x: 0.026561886551677624
      y: -2.1265161392625385
      z: 0.0
  - 
    first_point: 
      x: -3.0497300381409165
      y: 0.98429314878631
      z: 0.0
    last_point: 
      x: -2.9618141376597884
      y: 0.0061288500743189875
      z: 0.0
circles: 
  - 
    center: 
      x: -0.49124029628812543
      y: -0.45496116146956805
      z: 0.0
    velocity: 
      x: 0.0
      y: 0.0
      z: 0.0
    radius: 0.33022061287483073
    true_radius: 0.08022061287483073
  - 
    center: 
      x: 0.13783988517114631
      y: -0.9800979066106943
      z: 0.0
    velocity: 
      x: 0.0
      y: 0.0
      z: 0.0
    radius: 0.340272954596636
    true_radius: 0.09027295459663598
  - 
    center: 
      x: 0.14944153812645156
      y: -0.0036126100471535567
      z: 0.0
    velocity: 
      x: 0.0
      y: 0.0
      z: 0.0
    radius: 0.3944696059949908
    true_radius: 0.1444696059949908
  - 
    center: 
      x: -0.44001651104913364
      y: 0.5032787162835354
      z: 0.0
    velocity: 
      x: 0.0
      y: 0.0
      z: 0.0
    radius: 0.39962300258537614
    true_radius: 0.14962300258537614
---
header: 
  seq: 3858
  stamp: 
    secs: 1690957758
    nsecs: 528443000
  frame_id: "laser_frame"
segments: 
  - 
    first_point: 
      x: -0.8234215858585778
      y: -2.1126281557057593
      z: 0.0
    last_point: 
      x: 0.026393985847021434
      y: -2.1296606447070734
      z: 0.0
  - 
    first_point: 
      x: -3.0367861056920056
      y: 1.0182907818983795
      z: 0.0
    last_point: 
      x: -2.9525848989758923
      y: 0.006945273501050885
      z: 0.0
circles: 
  - 
    center: 
      x: -0.4847141697410968
      y: -0.45535447392644895
      z: 0.0
    velocity: 
      x: 0.0
      y: 0.0
      z: 0.0
    radius: 0.3250032968366841
    true_radius: 0.07500329683668411
  - 
    center: 
      x: 0.1434168397620389
      y: -0.9748376730967746
      z: 0.0
    velocity: 
      x: 0.0
      y: 0.0
      z: 0.0
    radius: 0.33270640627673764
    true_radius: 0.08270640627673764
  - 
    center: 
      x: 0.14263356153475143
      y: -0.007803185824655022
      z: 0.0
    velocity: 
      x: 0.0
      y: 0.0
      z: 0.0
    radius: 0.3825863220440597
    true_radius: 0.13258632204405968
  - 
    center: 
      x: -0.3093652573641559
      y: 1.4227672040713661
      z: 0.0
    velocity: 
      x: 0.0
      y: 0.0
      z: 0.0
    radius: 0.37032142494784703
    true_radius: 0.12032142494784703
  - 
    center: 
      x: -0.4340634379974887
      y: 0.5013050603829148
      z: 0.0
    velocity: 
      x: 0.0
      y: 0.0
      z: 0.0
    radius: 0.3952398799138535
    true_radius: 0.1452398799138535
---
header: 
  seq: 3859
  stamp: 
    secs: 1690957758
    nsecs: 628043000
  frame_id: "laser_frame"
segments: 
  - 
    first_point: 
      x: -0.8008194871282347
      y: -2.1217618894633214
      z: 0.0
    last_point: 
      x: 0.05296309084864016
      y: -2.126788366529154
      z: 0.0
  - 
    first_point: 
      x: -3.0601098474948007
      y: 0.9163109865716031
      z: 0.0
    last_point: 
      x: -2.9089944800674163
      y: 0.2698312049304252
      z: 0.0
circles: 
  - 
    center: 
      x: -3.264626391591048
      y: -0.3538898295199022
      z: 0.0
    velocity: 
      x: 0.0
      y: 0.0
      z: 0.0
    radius: 0.5975061248845299
    true_radius: 0.3475061248845299
  - 
    center: 
      x: -0.48497829575464957
      y: -0.4531611045287771
      z: 0.0
    velocity: 
      x: 0.0
      y: 0.0
      z: 0.0
    radius: 0.3230571530539055
    true_radius: 0.07305715305390548
  - 
    center: 
      x: 0.13253363666424303
      y: -0.9752111215672549
      z: 0.0
    velocity: 
      x: 0.0
      y: 0.0
      z: 0.0
    radius: 0.3320428055084723
    true_radius: 0.08204280550847232
  - 
    center: 
      x: 0.14378702802804064
      y: 0.0006220185725890437
      z: 0.0
    velocity: 
      x: 0.0
      y: 0.0
      z: 0.0
    radius: 0.38894741635672425
    true_radius: 0.13894741635672425
  - 
    center: 
      x: -0.43422886079528594
      y: 0.5042123390045281
      z: 0.0
    velocity: 
      x: 0.0
      y: 0.0
      z: 0.0
    radius: 0.3986113247628994
    true_radius: 0.1486113247628994
---
header: 
  seq: 3860
  stamp: 
    secs: 1690957758
    nsecs: 727643000
  frame_id: "laser_frame"
segments: 
  - 
    first_point: 
      x: -0.7997759725989428
      y: -2.120067780550991
      z: 0.0
    last_point: 
      x: 0.05266068314629876
      y: -2.126891345873427
      z: 0.0
  - 
    first_point: 
      x: -3.0962917830143164
      y: 0.9784397183476029
      z: 0.0
    last_point: 
      x: -2.9099533928930583
      y: 0.33896908226419276
      z: 0.0
circles: 
  - 
    center: 
      x: -3.251688575442591
      y: -0.36284547846319254
      z: 0.0
    velocity: 
      x: 0.0
      y: 0.0
      z: 0.0
    radius: 0.5839480294398851
    true_radius: 0.3339480294398851
  - 
    center: 
      x: -0.47874221787186594
      y: -0.4541390806582401
      z: 0.0
    velocity: 
      x: 0.0
      y: 0.0
      z: 0.0
    radius: 0.3186439011332639
    true_radius: 0.06864390113326391
  - 
    center: 
      x: 0.1440418973965834
      y: -0.9836292956977692
      z: 0.0
    velocity: 
      x: 0.0
      y: 0.0
      z: 0.0
    radius: 0.347458480672306
    true_radius: 0.097458480672306
  - 
    center: 
      x: 0.15127996288794832
      y: -0.0035196469271009997
      z: 0.0
    velocity: 
      x: 0.0
      y: 0.0
      z: 0.0
    radius: 0.39499862235380107
    true_radius: 0.14499862235380107
  - 
    center: 
      x: -0.30587270501163066
      y: 1.420613022353782
      z: 0.0
    velocity: 
      x: 0.0
      y: 0.0
      z: 0.0
    radius: 0.3675961830182432
    true_radius: 0.1175961830182432
  - 
    center: 
      x: -0.43973192761020924
      y: 0.5036181885332255
      z: 0.0
    velocity: 
      x: 0.0
      y: 0.0
      z: 0.0
    radius: 0.40054457225555407
    true_radius: 0.15054457225555407
---
header: 
  seq: 3861
  stamp: 
    secs: 1690957758
    nsecs: 827443000
  frame_id: "laser_frame"
segments: 
  - 
    first_point: 
      x: -0.8265308454071432
      y: -2.113820573333359
      z: 0.0
    last_point: 
      x: 0.05312788570773482
      y: -2.1277089024888625
      z: 0.0
  - 
    first_point: 
      x: -3.09568236646712
      y: 1.020921444033504
      z: 0.0
    last_point: 
      x: -2.9098504768724536
      y: 0.34118822726336373
      z: 0.0
circles: 
  - 
    center: 
      x: -3.2592649794295134
      y: -0.3558970811664885
      z: 0.0
    velocity: 
      x: 0.0
      y: 0.0
      z: 0.0
    radius: 0.5941421901819044
    true_radius: 0.3441421901819044
  - 
    center: 
      x: -0.4855558143721728
      y: -0.4564866302649069
      z: 0.0
    velocity: 
      x: 0.0
      y: 0.0
      z: 0.0
    radius: 0.32572683023660864
    true_radius: 0.07572683023660864
  - 
    center: 
      x: 0.14883734144730312
      y: -0.9714312765131684
      z: 0.0
    velocity: 
      x: 0.0
      y: 0.0
      z: 0.0
    radius: 0.3261576495322037
    true_radius: 0.07615764953220372
  - 
    center: 
      x: 0.1377959670006238
      y: -0.01263907191768594
      z: 0.0
    velocity: 
      x: 0.0
      y: 0.0
      z: 0.0
    radius: 0.38538148914170633
    true_radius: 0.13538148914170633
  - 
    center: 
      x: -0.30992514742301025
      y: 1.4225583175640937
      z: 0.0
    velocity: 
      x: 0.0
      y: 0.0
      z: 0.0
    radius: 0.37191690400237376
    true_radius: 0.12191690400237376
  - 
    center: 
      x: -0.43294969535170796
      y: 0.5006261424180579
      z: 0.0
    velocity: 
      x: 0.0
      y: 0.0
      z: 0.0
    radius: 0.3952525370048201
    true_radius: 0.1452525370048201
---
header: 
  seq: 3862
  stamp: 
    secs: 1690957758
    nsecs: 927043000
  frame_id: "laser_frame"
segments: 
  - 
    first_point: 
      x: -0.8001173412529945
      y: -2.1217504837078747
      z: 0.0
    last_point: 
      x: 0.052939688338343505
      y: -2.1259552048208303
      z: 0.0
  - 
    first_point: 
      x: -3.0423450355965875
      y: 0.9790812819721872
      z: 0.0
    last_point: 
      x: -2.960073562671029
      y: 0.006507732425904097
      z: 0.0
circles: 
  - 
    center: 
      x: -3.253794188762234
      y: -0.37385846090548785
      z: 0.0
    velocity: 
      x: 0.0
      y: 0.0
      z: 0.0
    radius: 0.5701774301818566
    true_radius: 0.3201774301818566
  - 
    center: 
      x: -0.48447009587641604
      y: -0.45307375189371846
      z: 0.0
    velocity: 
      x: 0.0
      y: 0.0
      z: 0.0
    radius: 0.3234030423084558
    true_radius: 0.07340304230845579
  - 
    center: 
      x: 0.13840745319310513
      y: -0.9796199786906911
      z: 0.0
    velocity: 
      x: 0.0
      y: 0.0
      z: 0.0
    radius: 0.33982661589559027
    true_radius: 0.08982661589559027
  - 
    center: 
      x: 0.1433700562704301
      y: -0.011820014022527003
      z: 0.0
    velocity: 
      x: 0.0
      y: 0.0
      z: 0.0
    radius: 0.3831423628692926
    true_radius: 0.1331423628692926
  - 
    center: 
      x: -0.4283439933465187
      y: 0.49591078120126275
      z: 0.0
    velocity: 
      x: 0.0
      y: 0.0
      z: 0.0
    radius: 0.3851688594555017
    true_radius: 0.13516885945550172
---
header: 
  seq: 3863
  stamp: 
    secs: 1690957759
    nsecs:  26643000
  frame_id: "laser_frame"
segments: 
  - 
    first_point: 
      x: -0.8015105483109317
      y: -2.120480754393092
      z: 0.0
    last_point: 
      x: 0.026553726185140396
      y: -2.1272174975099003
      z: 0.0
  - 
    first_point: 
      x: -3.0221680950264935
      y: 0.9702661735046479
      z: 0.0
    last_point: 
      x: -2.954942389434602
      y: 0.004529120428539764
      z: 0.0
circles: 
  - 
    center: 
      x: -0.48464599172186607
      y: -0.45208537575360475
      z: 0.0
    velocity: 
      x: 0.0
      y: 0.0
      z: 0.0
    radius: 0.3222843463146208
    true_radius: 0.07228434631462077
  - 
    center: 
      x: 0.13814806966545526
      y: -0.980052768288235
      z: 0.0
    velocity: 
      x: 0.0
      y: 0.0
      z: 0.0
    radius: 0.3400788676362717
    true_radius: 0.09007886763627171
  - 
    center: 
      x: 0.14638304862472645
      y: -0.0017634533411757748
      z: 0.0
    velocity: 
      x: 0.0
      y: 0.0
      z: 0.0
    radius: 0.3928879373127437
    true_radius: 0.14288793731274368
  - 
    center: 
      x: -0.4400923292507209
      y: 0.5037548568361266
      z: 0.0
    velocity: 
      x: 0.0
      y: 0.0
      z: 0.0
    radius: 0.3996369433302204
    true_radius: 0.14963694333022037
---
header: 
  seq: 3864
  stamp: 
    secs: 1690957759
    nsecs: 126243000
  frame_id: "laser_frame"
segments: 
  - 
    first_point: 
      x: -0.7709286339004318
      y: -2.1206265918083935
      z: 0.0
    last_point: 
      x: 0.05278603889371335
      y: -2.1254678151647104
      z: 0.0
  - 
    first_point: 
      x: -3.0380849926637157
      y: 0.97589497149262
      z: 0.0
    last_point: 
      x: -2.9682071785471607
      y: 0.004084091925052446
      z: 0.0
circles: 
  - 
    center: 
      x: -0.4884109708722293
      y: -0.453621689137125
      z: 0.0
    velocity: 
      x: 0.0
      y: 0.0
      z: 0.0
    radius: 0.3239536584984443
    true_radius: 0.07395365849844432
  - 
    center: 
      x: 0.14378753677167497
      y: -0.9831175289972574
      z: 0.0
    velocity: 
      x: 0.0
      y: 0.0
      z: 0.0
    radius: 0.3470844065756443
    true_radius: 0.09708440657564432
  - 
    center: 
      x: 0.14685487269753883
      y: -0.005217352225083691
      z: 0.0
    velocity: 
      x: 0.0
      y: 0.0
      z: 0.0
    radius: 0.3975334891758645
    true_radius: 0.1475334891758645
  - 
    center: 
      x: -0.2938741078033156
      y: 1.4193495523455948
      z: 0.0
    velocity: 
      x: 0.0
      y: 0.0
      z: 0.0
    radius: 0.36309586771508495
    true_radius: 0.11309586771508495
  - 
    center: 
      x: -0.44024711844218606
      y: 0.5038642324096789
      z: 0.0
    velocity: 
      x: 0.0
      y: 0.0
      z: 0.0
    radius: 0.40101739912675577
    true_radius: 0.15101739912675577
---
header: 
  seq: 3865
  stamp: 
    secs: 1690957759
    nsecs: 226043000
  frame_id: "laser_frame"
segments: 
  - 
    first_point: 
      x: -0.8001165705646315
      y: -2.1192986793527147
      z: 0.0
    last_point: 
      x: 0.052862818555310484
      y: -2.126241850869428
      z: 0.0
  - 
    first_point: 
      x: -3.017712857392087
      y: 0.9663273753118229
      z: 0.0
    last_point: 
      x: -2.9606963087867824
      y: 0.004404659715593057
      z: 0.0
circles: 
  - 
    center: 
      x: -3.224011407327491
      y: -0.3774982823213511
      z: 0.0
    velocity: 
      x: 0.0
      y: 0.0
      z: 0.0
    radius: 0.5556494537013137
    true_radius: 0.3056494537013137
  - 
    center: 
      x: -0.48968450072104197
      y: -0.45392984549475957
      z: 0.0
    velocity: 
      x: 0.0
      y: 0.0
      z: 0.0
    radius: 0.3277520436319127
    true_radius: 0.07775204363191268
  - 
    center: 
      x: 0.1321175355648185
      y: -0.9754629728393156
      z: 0.0
    velocity: 
      x: 0.0
      y: 0.0
      z: 0.0
    radius: 0.33217756582407026
    true_radius: 0.08217756582407026
  - 
    center: 
      x: 0.13800724205569875
      y: -0.0073832233132458056
      z: 0.0
    velocity: 
      x: 0.0
      y: 0.0
      z: 0.0
    radius: 0.38209166827541663
    true_radius: 0.13209166827541663
  - 
    center: 
      x: -0.3026392119169184
      y: 1.4239016280388195
      z: 0.0
    velocity: 
      x: 0.0
      y: 0.0
      z: 0.0
    radius: 0.37654749516905284
    true_radius: 0.12654749516905284
  - 
    center: 
      x: -0.44053747553668615
      y: 0.504629733608538
      z: 0.0
    velocity: 
      x: 0.0
      y: 0.0
      z: 0.0
    radius: 0.4027600244979208
    true_radius: 0.1527600244979208
---
header: 
  seq: 3866
  stamp: 
    secs: 1690957759
    nsecs: 325643000
  frame_id: "laser_frame"
segments: 
  - 
    first_point: 
      x: -2.96735267603703
      y: 0.9507163432517381
      z: 0.0
    last_point: 
      x: -3.0809688171011707
      y: -0.6620309642602081
      z: 0.0
  - 
    first_point: 
      x: -0.8015098475875436
      y: -2.124003798827013
      z: 0.0
    last_point: 
      x: 0.0530289232049883
      y: -2.125364451079697
      z: 0.0
circles: 
  - 
    center: 
      x: -0.4850254854517267
      y: -0.4552187668014554
      z: 0.0
    velocity: 
      x: 0.0
      y: 0.0
      z: 0.0
    radius: 0.32496123214674016
    true_radius: 0.07496123214674016
  - 
    center: 
      x: 0.13869593946048447
      y: -0.9799496007830473
      z: 0.0
    velocity: 
      x: 0.0
      y: 0.0
      z: 0.0
    radius: 0.3398156725881866
    true_radius: 0.08981567258818662
  - 
    center: 
      x: 0.1370972680952654
      y: -0.011437004015137161
      z: 0.0
    velocity: 
      x: 0.0
      y: 0.0
      z: 0.0
    radius: 0.3841740030354114
    true_radius: 0.13417400303541138
  - 
    center: 
      x: -0.4382566497143228
      y: 0.5037408294246136
      z: 0.0
    velocity: 
      x: 0.0
      y: 0.0
      z: 0.0
    radius: 0.40010629743532233
    true_radius: 0.15010629743532233
---
header: 
  seq: 3867
  stamp: 
    secs: 1690957759
    nsecs: 425043000
  frame_id: "laser_frame"
segments: 
  - 
    first_point: 
      x: -2.998764316144705
      y: 0.9670965539071057
      z: 0.0
    last_point: 
      x: -3.0700062738178757
      y: -0.6990663788161279
      z: 0.0
  - 
    first_point: 
      x: -0.8001237573244108
      y: -2.120050932084645
      z: 0.0
    last_point: 
      x: 0.0528201978050029
      y: -2.1272059550140545
      z: 0.0
circles: 
  - 
    center: 
      x: -0.4848318695346045
      y: -0.4519239989615181
      z: 0.0
    velocity: 
      x: 0.0
      y: 0.0
      z: 0.0
    radius: 0.3222963685372341
    true_radius: 0.07229636853723409
  - 
    center: 
      x: 0.14415251001372384
      y: -0.9828146313888525
      z: 0.0
    velocity: 
      x: 0.0
      y: 0.0
      z: 0.0
    radius: 0.3470673169293109
    true_radius: 0.09706731692931092
  - 
    center: 
      x: 0.14324677076158077
      y: -0.014240598466438376
      z: 0.0
    velocity: 
      x: 0.0
      y: 0.0
      z: 0.0
    radius: 0.3888642677495897
    true_radius: 0.1388642677495897
  - 
    center: 
      x: -0.42676281576211267
      y: 0.4987359068677355
      z: 0.0
    velocity: 
      x: 0.0
      y: 0.0
      z: 0.0
    radius: 0.3893643452840305
    true_radius: 0.13936434528403052
---
header: 
  seq: 3868
  stamp: 
    secs: 1690957759
    nsecs: 524443000
  frame_id: "laser_frame"
segments: 
  - 
    first_point: 
      x: -2.9773774279717626
      y: 0.9541267561282664
      z: 0.0
    last_point: 
      x: -3.0916972411943644
      y: -0.6647730768556366
      z: 0.0
  - 
    first_point: 
      x: -0.7990576937661502
      y: -2.115032728877711
      z: 0.0
    last_point: 
      x: 0.05288566560605666
      y: -2.127803672209378
      z: 0.0
circles: 
  - 
    center: 
      x: -0.48611965752548947
      y: -0.45195097621599106
      z: 0.0
    velocity: 
      x: 0.0
      y: 0.0
      z: 0.0
    radius: 0.3215500594062791
    true_radius: 0.07155005940627912
  - 
    center: 
      x: 0.13830837790572664
      y: -0.9798201854048272
      z: 0.0
    velocity: 
      x: 0.0
      y: 0.0
      z: 0.0
    radius: 0.3400567533758887
    true_radius: 0.0900567533758887
  - 
    center: 
      x: 0.14628606991778795
      y: -0.006745529275209834
      z: 0.0
    velocity: 
      x: 0.0
      y: 0.0
      z: 0.0
    radius: 0.3956072203113884
    true_radius: 0.1456072203113884
  - 
    center: 
      x: -0.43662214723701775
      y: 0.5020485130720121
      z: 0.0
    velocity: 
      x: 0.0
      y: 0.0
      z: 0.0
    radius: 0.3950864632746557
    true_radius: 0.14508646327465569
---
header: 
  seq: 3869
  stamp: 
    secs: 1690957759
    nsecs: 623843000
  frame_id: "laser_frame"
segments: 
  - 
    first_point: 
      x: -3.024239444523916
      y: 0.9773988590916196
      z: 0.0
    last_point: 
      x: -3.0779606492743623
      y: -0.6562673662106395
      z: 0.0
  - 
    first_point: 
      x: -0.8272600823862849
      y: -2.117737717058101
      z: 0.0
    last_point: 
      x: 0.05299757511223558
      y: -2.1287259498394566
      z: 0.0
circles: 
  - 
    center: 
      x: -0.48580899968820584
      y: -0.45651428524685334
      z: 0.0
    velocity: 
      x: 0.0
      y: 0.0
      z: 0.0
    radius: 0.32612277406068096
    true_radius: 0.07612277406068096
  - 
    center: 
      x: 0.13855169868733047
      y: -0.9797671046757209
      z: 0.0
    velocity: 
      x: 0.0
      y: 0.0
      z: 0.0
    radius: 0.339723018284191
    true_radius: 0.08972301828419099
  - 
    center: 
      x: 0.14074189115607172
      y: -0.011162098171946161
      z: 0.0
    velocity: 
      x: 0.0
      y: 0.0
      z: 0.0
    radius: 0.38497473181989805
    true_radius: 0.13497473181989805
  - 
    center: 
      x: -0.31246016443202473
      y: 1.4200522416354033
      z: 0.0
    velocity: 
      x: 0.0
      y: 0.0
      z: 0.0
    radius: 0.37275173327828165
    true_radius: 0.12275173327828165
  - 
    center: 
      x: -0.4343380585850284
      y: 0.5034317133157782
      z: 0.0
    velocity: 
      x: 0.0
      y: 0.0
      z: 0.0
    radius: 0.3974022563952446
    true_radius: 0.14740225639524462
---
header: 
  seq: 3870
  stamp: 
    secs: 1690957759
    nsecs: 723243000
  frame_id: "laser_frame"
segments: 
  - 
    first_point: 
      x: -0.8216432313745846
      y: -2.112739667959202
      z: 0.0
    last_point: 
      x: 0.05303664094640075
      y: -2.128223215076706
      z: 0.0
  - 
    first_point: 
      x: -3.106092980179829
      y: 1.0227107313276331
      z: 0.0
    last_point: 
      x: -2.9081941928255732
      y: 0.38169697571151434
      z: 0.0
circles: 
  - 
    center: 
      x: -0.4855382099558757
      y: -0.4574246577914879
      z: 0.0
    velocity: 
      x: 0.0
      y: 0.0
      z: 0.0
    radius: 0.3257066765923423
    true_radius: 0.07570667659234231
  - 
    center: 
      x: 0.14358781939183918
      y: -0.9751119841728825
      z: 0.0
    velocity: 
      x: 0.0
      y: 0.0
      z: 0.0
    radius: 0.3328102004514957
    true_radius: 0.08281020045149567
  - 
    center: 
      x: 0.1415861235470624
      y: -0.008925146891291324
      z: 0.0
    velocity: 
      x: 0.0
      y: 0.0
      z: 0.0
    radius: 0.38489137396129913
    true_radius: 0.13489137396129913
  - 
    center: 
      x: -0.4329173779064262
      y: 0.5001243656373263
      z: 0.0
    velocity: 
      x: 0.0
      y: 0.0
      z: 0.0
    radius: 0.39391585746463764
    true_radius: 0.14391585746463764
---
header: 
  seq: 3871
  stamp: 
    secs: 1690957759
    nsecs: 822643000
  frame_id: "laser_frame"
segments: 
  - 
    first_point: 
      x: -0.820657860492497
      y: -2.1137816467040627
      z: 0.0
    last_point: 
      x: 0.026480268171811
      y: -2.1302895425204644
      z: 0.0
  - 
    first_point: 
      x: -3.0486771764116107
      y: 1.0264652871354936
      z: 0.0
    last_point: 
      x: -2.9574389859959447
      y: 0.007392144231634722
      z: 0.0
circles: 
  - 
    center: 
      x: -0.48429008842779125
      y: -0.45664839994107526
      z: 0.0
    velocity: 
      x: 0.0
      y: 0.0
      z: 0.0
    radius: 0.32572866760298613
    true_radius: 0.07572866760298613
  - 
    center: 
      x: 0.14353384268470024
      y: -0.9750400104136969
      z: 0.0
    velocity: 
      x: 0.0
      y: 0.0
      z: 0.0
    radius: 0.3328127044967676
    true_radius: 0.08281270449676759
  - 
    center: 
      x: 0.14445838111196796
      y: 0.004994909382099637
      z: 0.0
    velocity: 
      x: 0.0
      y: 0.0
      z: 0.0
    radius: 0.38508943291440845
    true_radius: 0.13508943291440845
  - 
    center: 
      x: -0.4405565414567577
      y: 0.5041176548318935
      z: 0.0
    velocity: 
      x: 0.0
      y: 0.0
      z: 0.0
    radius: 0.4020982708499422
    true_radius: 0.1520982708499422
---
header: 
  seq: 3872
  stamp: 
    secs: 1690957759
    nsecs: 922043000
  frame_id: "laser_frame"
segments: 
  - 
    first_point: 
      x: -2.9783881707006983
      y: 0.9485123425243869
      z: 0.0
    last_point: 
      x: -3.086126313130063
      y: -0.6603930823205001
      z: 0.0
  - 
    first_point: 
      x: -0.8268571499503751
      y: -2.1214561580260383
      z: 0.0
    last_point: 
      x: 0.05296268299106239
      y: -2.126786506843733
      z: 0.0
circles: 
  - 
    center: 
      x: -0.4784715316190561
      y: -0.45284305130470914
      z: 0.0
    velocity: 
      x: 0.0
      y: 0.0
      z: 0.0
    radius: 0.31749805870814446
    true_radius: 0.06749805870814446
  - 
    center: 
      x: 0.13252282549724934
      y: -0.9751406238745471
      z: 0.0
    velocity: 
      x: 0.0
      y: 0.0
      z: 0.0
    radius: 0.3320509988352045
    true_radius: 0.0820509988352045
  - 
    center: 
      x: 0.14581818090047688
      y: -3.843147849107403e-05
      z: 0.0
    velocity: 
      x: 0.0
      y: 0.0
      z: 0.0
    radius: 0.3920131827123457
    true_radius: 0.1420131827123457
  - 
    center: 
      x: -0.2985981271943624
      y: 1.4274360618204525
      z: 0.0
    velocity: 
      x: 0.0
      y: 0.0
      z: 0.0
    radius: 0.37439282961880543
    true_radius: 0.12439282961880543
  - 
    center: 
      x: -0.4405256459502288
      y: 0.5047748916015368
      z: 0.0
    velocity: 
      x: 0.0
      y: 0.0
      z: 0.0
    radius: 0.4027539178725229
    true_radius: 0.1527539178725229
---
header: 
  seq: 3873
  stamp: 
    secs: 1690957760
    nsecs:  21443000
  frame_id: "laser_frame"
segments: 
  - 
    first_point: 
      x: -0.8011601725825981
      y: -2.120619021235744
      z: 0.0
    last_point: 
      x: 0.052911484797140404
      y: -2.125292928876476
      z: 0.0
  - 
    first_point: 
      x: -3.1086315271405898
      y: 0.9788487367130009
      z: 0.0
    last_point: 
      x: -2.9125647885063515
      y: 0.3440884729278601
      z: 0.0
circles: 
  - 
    center: 
      x: -0.4847008703133753
      y: -0.4519548184897934
      z: 0.0
    velocity: 
      x: 0.0
      y: 0.0
      z: 0.0
    radius: 0.3222888021934137
    true_radius: 0.07228880219341371
  - 
    center: 
      x: 0.14976707462967204
      y: -0.9789177517768108
      z: 0.0
    velocity: 
      x: 0.0
      y: 0.0
      z: 0.0
    radius: 0.3405233128024159
    true_radius: 0.09052331280241588
  - 
    center: 
      x: 0.1401607125208352
      y: -0.0153322539912829
      z: 0.0
    velocity: 
      x: 0.0
      y: 0.0
      z: 0.0
    radius: 0.38842552504814853
    true_radius: 0.13842552504814853
  - 
    center: 
      x: -0.31051790956679554
      y: 1.4233268011035023
      z: 0.0
    velocity: 
      x: 0.0
      y: 0.0
      z: 0.0
    radius: 0.3723654142375333
    true_radius: 0.12236541423753328
  - 
    center: 
      x: -0.4331656088462307
      y: 0.5012255086215326
      z: 0.0
    velocity: 
      x: 0.0
      y: 0.0
      z: 0.0
    radius: 0.3956276559896327
    true_radius: 0.14562765598963268
---
header: 
  seq: 3874
  stamp: 
    secs: 1690957760
    nsecs: 120843000
  frame_id: "laser_frame"
segments: 
  - 
    first_point: 
      x: -0.8268969616801891
      y: -2.1149817596566156
      z: 0.0
    last_point: 
      x: 0.05299278792594899
      y: -2.1285772158282055
      z: 0.0
  - 
    first_point: 
      x: -3.108565697246433
      y: 0.985093098437566
      z: 0.0
    last_point: 
      x: -2.922055570919858
      y: 0.34060582759012326
      z: 0.0
circles: 
  - 
    center: 
      x: -3.249667807389096
      y: -0.3772105765945431
      z: 0.0
    velocity: 
      x: 0.0
      y: 0.0
      z: 0.0
    radius: 0.5640540412004343
    true_radius: 0.31405404120043434
  - 
    center: 
      x: -0.485902680596133
      y: -0.4564858327277378
      z: 0.0
    velocity: 
      x: 0.0
      y: 0.0
      z: 0.0
    radius: 0.3261358427587192
    true_radius: 0.07613584275871921
  - 
    center: 
      x: 0.13863344702209457
      y: -0.9795639189645496
      z: 0.0
    velocity: 
      x: 0.0
      y: 0.0
      z: 0.0
    radius: 0.3396148777657599
    true_radius: 0.08961487776575988
  - 
    center: 
      x: 0.07490633148770394
      y: 0.11779175388563685
      z: 0.0
    velocity: 
      x: 0.0
      y: 0.0
      z: 0.0
    radius: 0.28414923453750196
    true_radius: 0.03414923453750196
  - 
    center: 
      x: -0.4324498086464123
      y: 0.4986372318779163
      z: 0.0
    velocity: 
      x: 0.0
      y: 0.0
      z: 0.0
    radius: 0.3915230489722874
    true_radius: 0.1415230489722874
---
header: 
  seq: 3875
  stamp: 
    secs: 1690957760
    nsecs: 220443000
  frame_id: "laser_frame"
segments: 
  - 
    first_point: 
      x: -0.7709260096642967
      y: -2.1205066331578
      z: 0.0
    last_point: 
      x: 0.052855594975011695
      y: -2.1247001884161687
      z: 0.0
  - 
    first_point: 
      x: -3.032464998848467
      y: 1.0149137620815845
      z: 0.0
    last_point: 
      x: -2.951290609308255
      y: 0.0060113908957316175
      z: 0.0
circles: 
  - 
    center: 
      x: -0.485857719574313
      y: -0.45020817734286667
      z: 0.0
    velocity: 
      x: 0.0
      y: 0.0
      z: 0.0
    radius: 0.3199719135713812
    true_radius: 0.06997191357138122
  - 
    center: 
      x: 0.14437766895779475
      y: -0.9827279069858968
      z: 0.0
    velocity: 
      x: 0.0
      y: 0.0
      z: 0.0
    radius: 0.34717583755147396
    true_radius: 0.09717583755147396
  - 
    center: 
      x: 0.14531012045147917
      y: -0.0073464562171162845
      z: 0.0
    velocity: 
      x: 0.0
      y: 0.0
      z: 0.0
    radius: 0.3944799972692161
    true_radius: 0.14447999726921612
  - 
    center: 
      x: -0.30822705614963053
      y: 1.4219303661281397
      z: 0.0
    velocity: 
      x: 0.0
      y: 0.0
      z: 0.0
    radius: 0.372805951830925
    true_radius: 0.12280595183092502
  - 
    center: 
      x: -0.4343305208364653
      y: 0.502743067734363
      z: 0.0
    velocity: 
      x: 0.0
      y: 0.0
      z: 0.0
    radius: 0.3967964250113518
    true_radius: 0.14679642501135182
---
header: 
  seq: 3876
  stamp: 
    secs: 1690957760
    nsecs: 319843000
  frame_id: "laser_frame"
segments: 
  - 
    first_point: 
      x: -2.9928577851075135
      y: 0.9522334167799591
      z: 0.0
    last_point: 
      x: -3.0745529947379064
      y: -0.6577874931869265
      z: 0.0
  - 
    first_point: 
      x: -0.8206190014772675
      y: -2.1130823718123506
      z: 0.0
    last_point: 
      x: 0.05297548421987811
      y: -2.129158584869504
      z: 0.0
circles: 
  - 
    center: 
      x: -0.4797448477482902
      y: -0.45383811361106724
      z: 0.0
    velocity: 
      x: 0.0
      y: 0.0
      z: 0.0
    radius: 0.31832765997658186
    true_radius: 0.06832765997658186
  - 
    center: 
      x: 0.13725733195082673
      y: -0.9707567167600206
      z: 0.0
    velocity: 
      x: 0.0
      y: 0.0
      z: 0.0
    radius: 0.32513397756644713
    true_radius: 0.07513397756644713
  - 
    center: 
      x: 0.14329300506057735
      y: -0.002407932591090946
      z: 0.0
    velocity: 
      x: 0.0
      y: 0.0
      z: 0.0
    radius: 0.3913114464156104
    true_radius: 0.1413114464156104
  - 
    center: 
      x: -0.4400086627559171
      y: 0.5035827646990946
      z: 0.0
    velocity: 
      x: 0.0
      y: 0.0
      z: 0.0
    radius: 0.40027827272397637
    true_radius: 0.15027827272397637
---
header: 
  seq: 3877
  stamp: 
    secs: 1690957760
    nsecs: 419443000
  frame_id: "laser_frame"
segments: 
  - 
    first_point: 
      x: -3.103620314797563
      y: -0.04458391969355573
      z: 0.0
    last_point: 
      x: -3.0559025092498726
      y: -0.678883057109806
      z: 0.0
  - 
    first_point: 
      x: -0.8001399256696824
      y: -2.120955841121156
      z: 0.0
    last_point: 
      x: 0.05285549220114588
      y: -2.1295235096236977
      z: 0.0
  - 
    first_point: 
      x: -3.0995061758338225
      y: 1.024729610032811
      z: 0.0
    last_point: 
      x: -2.9077449581380517
      y: 0.341641593801952
      z: 0.0
circles: 
  - 
    center: 
      x: -0.4848905369338829
      y: -0.4525986378993401
      z: 0.0
    velocity: 
      x: 0.0
      y: 0.0
      z: 0.0
    radius: 0.3230566129057405
    true_radius: 0.0730566129057405
  - 
    center: 
      x: 0.14314313924815814
      y: -0.9758932637876226
      z: 0.0
    velocity: 
      x: 0.0
      y: 0.0
      z: 0.0
    radius: 0.3335313616037196
    true_radius: 0.0835313616037196
  - 
    center: 
      x: 0.14481477287934685
      y: -0.011592284017854811
      z: 0.0
    velocity: 
      x: 0.0
      y: 0.0
      z: 0.0
    radius: 0.38666104559838377
    true_radius: 0.13666104559838377
  - 
    center: 
      x: -0.4328490252859902
      y: 0.5003901390956873
      z: 0.0
    velocity: 
      x: 0.0
      y: 0.0
      z: 0.0
    radius: 0.3945565807681317
    true_radius: 0.14455658076813171
---
header: 
  seq: 3878
  stamp: 
    secs: 1690957760
    nsecs: 518843000
  frame_id: "laser_frame"
segments: 
  - 
    first_point: 
      x: -0.8008008679322541
      y: -2.1182435943623967
      z: 0.0
    last_point: 
      x: 0.05309673446051221
      y: -2.1262607159350058
      z: 0.0
  - 
    first_point: 
      x: -3.022522438979348
      y: 0.9698524009882694
      z: 0.0
    last_point: 
      x: -2.9520537234713893
      y: 0.004522460165927642
      z: 0.0
circles: 
  - 
    center: 
      x: -0.49055274002755467
      y: -0.4522713697079891
      z: 0.0
    velocity: 
      x: 0.0
      y: 0.0
      z: 0.0
    radius: 0.3263683076996028
    true_radius: 0.07636830769960279
  - 
    center: 
      x: 0.14379253679532517
      y: -0.9745926868321232
      z: 0.0
    velocity: 
      x: 0.0
      y: 0.0
      z: 0.0
    radius: 0.3325716037201311
    true_radius: 0.08257160372013111
  - 
    center: 
      x: 0.1407117711015176
      y: -0.010642548544838508
      z: 0.0
    velocity: 
      x: 0.0
      y: 0.0
      z: 0.0
    radius: 0.3858810579549647
    true_radius: 0.1358810579549647
  - 
    center: 
      x: -0.4287887298447161
      y: 0.4974327235194916
      z: 0.0
    velocity: 
      x: 0.0
      y: 0.0
      z: 0.0
    radius: 0.38660176190084883
    true_radius: 0.13660176190084883
---
header: 
  seq: 3879
  stamp: 
    secs: 1690957760
    nsecs: 618443000
  frame_id: "laser_frame"
segments: 
  - 
    first_point: 
      x: -3.005427430582675
      y: 1.0111379227960344
      z: 0.0
    last_point: 
      x: -3.07731169148277
      y: -0.6584894194120734
      z: 0.0
  - 
    first_point: 
      x: -0.799086249119673
      y: -2.1177557848176094
      z: 0.0
    last_point: 
      x: 0.05292772795897139
      y: -2.128344886461151
      z: 0.0
circles: 
  - 
    center: 
      x: -0.4854601475069867
      y: -0.45558007857430244
      z: 0.0
    velocity: 
      x: 0.0
      y: 0.0
      z: 0.0
    radius: 0.32537049164648113
    true_radius: 0.07537049164648113
  - 
    center: 
      x: 0.13861898392582628
      y: -0.9795293164683546
      z: 0.0
    velocity: 
      x: 0.0
      y: 0.0
      z: 0.0
    radius: 0.33981618466125585
    true_radius: 0.08981618466125585
  - 
    center: 
      x: 0.14645391526684445
      y: 0.005005415281995133
      z: 0.0
    velocity: 
      x: 0.0
      y: 0.0
      z: 0.0
    radius: 0.3870945874187066
    true_radius: 0.13709458741870661
  - 
    center: 
      x: -0.29790579518718024
      y: 1.4268713058108962
      z: 0.0
    velocity: 
      x: 0.0
      y: 0.0
      z: 0.0
    radius: 0.37428008868505397
    true_radius: 0.12428008868505397
  - 
    center: 
      x: -0.44019392075766267
      y: 0.5048126765579778
      z: 0.0
    velocity: 
      x: 0.0
      y: 0.0
      z: 0.0
    radius: 0.4023300485083984
    true_radius: 0.15233004850839837
---
header: 
  seq: 3880
  stamp: 
    secs: 1690957760
    nsecs: 717843000
  frame_id: "laser_frame"
segments: 
  - 
    first_point: 
      x: -0.8004543594640866
      y: -2.118171592992172
      z: 0.0
    last_point: 
      x: 0.05276406028317472
      y: -2.1256386318855895
      z: 0.0
  - 
    first_point: 
      x: -3.100134584712028
      y: 0.983680757463843
      z: 0.0
    last_point: 
      x: -2.9175815006672363
      y: 0.2735416642789747
      z: 0.0
circles: 
  - 
    center: 
      x: -0.4804963367049415
      y: -0.450942345931561
      z: 0.0
    velocity: 
      x: 0.0
      y: 0.0
      z: 0.0
    radius: 0.31767658300766755
    true_radius: 0.06767658300766755
  - 
    center: 
      x: 0.14432317661420513
      y: -0.9832526198665814
      z: 0.0
    velocity: 
      x: 0.0
      y: 0.0
      z: 0.0
    radius: 0.3474348484998537
    true_radius: 0.09743484849985368
  - 
    center: 
      x: 0.14947505352928264
      y: -0.0033587996294657738
      z: 0.0
    velocity: 
      x: 0.0
      y: 0.0
      z: 0.0
    radius: 0.39053929420395656
    true_radius: 0.14053929420395656
  - 
    center: 
      x: -0.4346388893319724
      y: 0.5032687339354587
      z: 0.0
    velocity: 
      x: 0.0
      y: 0.0
      z: 0.0
    radius: 0.397805131854952
    true_radius: 0.14780513185495198
---
header: 
  seq: 3881
  stamp: 
    secs: 1690957760
    nsecs: 817443000
  frame_id: "laser_frame"
segments: 
  - 
    first_point: 
      x: -0.8212958271687744
      y: -2.113099953925902
      z: 0.0
    last_point: 
      x: 0.053034183648660804
      y: -2.1283755475037887
      z: 0.0
  - 
    first_point: 
      x: -3.0958403664748624
      y: 0.9749117043966234
      z: 0.0
    last_point: 
      x: -2.914044858265977
      y: 0.37330620682151827
      z: 0.0
circles: 
  - 
    center: 
      x: -3.2387784619379607
      y: -0.3839698073344598
      z: 0.0
    velocity: 
      x: 0.0
      y: 0.0
      z: 0.0
    radius: 0.5572530259085999
    true_radius: 0.30725302590859993
  - 
    center: 
      x: -0.4856164397378582
      y: -0.45712906854248697
      z: 0.0
    velocity: 
      x: 0.0
      y: 0.0
      z: 0.0
    radius: 0.3257234402862319
    true_radius: 0.0757234402862319
  - 
    center: 
      x: 0.14344338729359435
      y: -0.9748938809995652
      z: 0.0
    velocity: 
      x: 0.0
      y: 0.0
      z: 0.0
    radius: 0.33281652615731894
    true_radius: 0.08281652615731894
  - 
    center: 
      x: 0.1418223919121988
      y: -0.01046447562018919
      z: 0.0
    velocity: 
      x: 0.0
      y: 0.0
      z: 0.0
    radius: 0.3856043719837824
    true_radius: 0.1356043719837824
  - 
    center: 
      x: -0.4399401756684248
      y: 0.5040770301223975
      z: 0.0
    velocity: 
      x: 0.0
      y: 0.0
      z: 0.0
    radius: 0.4009145975708801
    true_radius: 0.1509145975708801
---
header: 
  seq: 3882
  stamp: 
    secs: 1690957760
    nsecs: 916843000
  frame_id: "laser_frame"
segments: 
  - 
    first_point: 
      x: -0.8011443531486758
      y: -2.1180372673987304
      z: 0.0
    last_point: 
      x: 0.02659332108996102
      y: -2.125140684508552
      z: 0.0
  - 
    first_point: 
      x: -3.0325325245816495
      y: 1.017662851540339
      z: 0.0
    last_point: 
      x: -2.9540870720835097
      y: 0.004173334573631341
      z: 0.0
circles: 
  - 
    center: 
      x: -0.4842776580539215
      y: -0.4543179453221994
      z: 0.0
    velocity: 
      x: 0.0
      y: 0.0
      z: 0.0
    radius: 0.3241669882700308
    true_radius: 0.07416698827003082
  - 
    center: 
      x: 0.13854088551694901
      y: -0.9798040565584181
      z: 0.0
    velocity: 
      x: 0.0
      y: 0.0
      z: 0.0
    radius: 0.3399193609101345
    true_radius: 0.08991936091013453
  - 
    center: 
      x: 0.14816066462717725
      y: -0.003160090084305997
      z: 0.0
    velocity: 
      x: 0.0
      y: 0.0
      z: 0.0
    radius: 0.39331642101486575
    true_radius: 0.14331642101486575
  - 
    center: 
      x: -0.4405372817707464
      y: 0.504876866340542
      z: 0.0
    velocity: 
      x: 0.0
      y: 0.0
      z: 0.0
    radius: 0.4027554044736
    true_radius: 0.15275540447359998
---
header: 
  seq: 3883
  stamp: 
    secs: 1690957761
    nsecs:  16243000
  frame_id: "laser_frame"
segments: 
  - 
    first_point: 
      x: -0.8001160782026889
      y: -2.1199674065792027
      z: 0.0
    last_point: 
      x: 0.05287338152603758
      y: -2.125702978102492
      z: 0.0
  - 
    first_point: 
      x: -3.0959868040520684
      y: 0.9788339684163869
      z: 0.0
    last_point: 
      x: -2.887123658308195
      y: 0.20800639992727438
      z: 0.0
circles: 
  - 
    center: 
      x: -0.4842188098100319
      y: -0.45156780636984106
      z: 0.0
    velocity: 
      x: 0.0
      y: 0.0
      z: 0.0
    radius: 0.3214801150673512
    true_radius: 0.07148011506735119
  - 
    center: 
      x: 0.13175022191585345
      y: -0.9756895036234082
      z: 0.0
    velocity: 
      x: 0.0
      y: 0.0
      z: 0.0
    radius: 0.3322740870915387
    true_radius: 0.08227408709153872
  - 
    center: 
      x: 0.14436114579054332
      y: -0.0004351173051491161
      z: 0.0
    velocity: 
      x: 0.0
      y: 0.0
      z: 0.0
    radius: 0.38753429718562793
    true_radius: 0.13753429718562793
  - 
    center: 
      x: -0.4344683169662496
      y: 0.5035351020932857
      z: 0.0
    velocity: 
      x: 0.0
      y: 0.0
      z: 0.0
    radius: 0.39807641972200475
    true_radius: 0.14807641972200475
---
header: 
  seq: 3884
  stamp: 
    secs: 1690957761
    nsecs: 115643000
  frame_id: "laser_frame"
segments: 
  - 
    first_point: 
      x: -0.8265502985031858
      y: -2.1143720983475585
      z: 0.0
    last_point: 
      x: 0.05306015247084556
      y: -2.129341642293419
      z: 0.0
  - 
    first_point: 
      x: -3.099137979673778
      y: 0.9799297357852914
      z: 0.0
    last_point: 
      x: -2.9123303976288817
      y: 0.34030394115778223
      z: 0.0
circles: 
  - 
    center: 
      x: -3.2573814260243856
      y: -0.3637030035672427
      z: 0.0
    velocity: 
      x: 0.0
      y: 0.0
      z: 0.0
    radius: 0.5844676489371501
    true_radius: 0.3344676489371501
  - 
    center: 
      x: -0.4857942847645947
      y: -0.4565740192060098
      z: 0.0
    velocity: 
      x: 0.0
      y: 0.0
      z: 0.0
    radius: 0.3261196659224199
    true_radius: 0.07611966592241992
  - 
    center: 
      x: 0.1434509313183738
      y: -0.9754227955427981
      z: 0.0
    velocity: 
      x: 0.0
      y: 0.0
      z: 0.0
    radius: 0.33295303613139043
    true_radius: 0.08295303613139043
  - 
    center: 
      x: 0.14216284205172455
      y: -0.004748957373222883
      z: 0.0
    velocity: 
      x: 0.0
      y: 0.0
      z: 0.0
    radius: 0.3932115375681049
    true_radius: 0.1432115375681049
  - 
    center: 
      x: -0.44005113199884827
      y: 0.5035654554306109
      z: 0.0
    velocity: 
      x: 0.0
      y: 0.0
      z: 0.0
    radius: 0.40029288208372377
    true_radius: 0.15029288208372377
---
header: 
  seq: 3885
  stamp: 
    secs: 1690957761
    nsecs: 215243000
  frame_id: "laser_frame"
segments: 
  - 
    first_point: 
      x: -0.800459755607067
      y: -2.119533959420364
      z: 0.0
    last_point: 
      x: 0.052847591369057235
      y: -2.1250294193654153
      z: 0.0
  - 
    first_point: 
      x: -3.1098980565585372
      y: 0.9796075168811162
      z: 0.0
    last_point: 
      x: -2.9026202700856896
      y: 0.34450411292973876
      z: 0.0
circles: 
  - 
    center: 
      x: -0.49246793844566694
      y: -0.45585409990195397
      z: 0.0
    velocity: 
      x: 0.0
      y: 0.0
      z: 0.0
    radius: 0.33112517922448625
    true_radius: 0.08112517922448625
  - 
    center: 
      x: 0.14381007818800914
      y: -0.9836203531159657
      z: 0.0
    velocity: 
      x: 0.0
      y: 0.0
      z: 0.0
    radius: 0.34721159582941297
    true_radius: 0.09721159582941297
  - 
    center: 
      x: 0.1438870345968684
      y: -0.013408846982084171
      z: 0.0
    velocity: 
      x: 0.0
      y: 0.0
      z: 0.0
    radius: 0.3886267384926735
    true_radius: 0.13862673849267348
  - 
    center: 
      x: -0.3111948361998873
      y: 1.4222294402366809
      z: 0.0
    velocity: 
      x: 0.0
      y: 0.0
      z: 0.0
    radius: 0.37274987582854635
    true_radius: 0.12274987582854635
  - 
    center: 
      x: -0.4343339040958803
      y: 0.5026812471077715
      z: 0.0
    velocity: 
      x: 0.0
      y: 0.0
      z: 0.0
    radius: 0.39679995596559803
    true_radius: 0.14679995596559803
---
header: 
  seq: 3886
  stamp: 
    secs: 1690957761
    nsecs: 314843000
  frame_id: "laser_frame"
segments: 
  - 
    first_point: 
      x: -0.800819913787652
      y: -2.1234319893053835
      z: 0.0
    last_point: 
      x: 0.02653184170588173
      y: -2.1269580181003023
      z: 0.0
  - 
    first_point: 
      x: -3.0275265111674603
      y: 0.9707017969737461
      z: 0.0
    last_point: 
      x: -2.9664037120487565
      y: 0.0033870584387655153
      z: 0.0
circles: 
  - 
    center: 
      x: -0.4844146401735525
      y: -0.4554504578078803
      z: 0.0
    velocity: 
      x: 0.0
      y: 0.0
      z: 0.0
    radius: 0.3253661261479558
    true_radius: 0.07536612614795579
  - 
    center: 
      x: 0.1387716216665388
      y: -0.9794126115433541
      z: 0.0
    velocity: 
      x: 0.0
      y: 0.0
      z: 0.0
    radius: 0.33961819895950107
    true_radius: 0.08961819895950107
  - 
    center: 
      x: 0.14880207001232454
      y: -0.0003088367381105705
      z: 0.0
    velocity: 
      x: 0.0
      y: 0.0
      z: 0.0
    radius: 0.39404390050299504
    true_radius: 0.14404390050299504
  - 
    center: 
      x: -0.44032967044097465
      y: 0.5035011608113691
      z: 0.0
    velocity: 
      x: 0.0
      y: 0.0
      z: 0.0
    radius: 0.40105112011322974
    true_radius: 0.15105112011322974
---
header: 
  seq: 3887
  stamp: 
    secs: 1690957761
    nsecs: 414243000
  frame_id: "laser_frame"
segments: 
  - 
    first_point: 
      x: -0.8004601231164167
