header: 
  seq: 1275
  stamp: 
    secs: 1690958043
    nsecs: 660947000
  frame_id: "laser_frame"
segments: 
  - 
    first_point: 
      x: -2.966104136509597
      y: 0.641527654669486
      z: 0.0
    last_point: 
      x: -3.137815103643111
      y: -0.7010938166467925
      z: 0.0
  - 
    first_point: 
      x: -0.8008085688776377
      y: -2.119697803247427
      z: 0.0
    last_point: 
      x: 0.05272035934445503
      y: -2.125235861250884
      z: 0.0
circles: 
  - 
    center: 
      x: -0.534313524931433
      y: -0.19182021459568793
      z: 0.0
    velocity: 
      x: 0.0
      y: 0.0
      z: 0.0
    radius: 0.3180120913321967
    true_radius: 0.06801209133219671
  - 
    center: 
      x: 0.13831742245599177
      y: -0.9780459430260345
      z: 0.0
    velocity: 
      x: 0.0
      y: 0.0
      z: 0.0
    radius: 0.3391568094872918
    true_radius: 0.08915680948729182
  - 
    center: 
      x: 0.13712071978880375
      y: -0.0038492832191674613
      z: 0.0
    velocity: 
      x: 0.0
      y: 0.0
      z: 0.0
    radius: 0.3787602162211178
    true_radius: 0.12876021622111777
  - 
    center: 
      x: -0.3082892022435366
      y: 1.4220571832768771
      z: 0.0
    velocity: 
      x: 0.0
      y: 0.0
      z: 0.0
    radius: 0.37283165043578087
    true_radius: 0.12283165043578087
  - 
    center: 
      x: -0.40540440542387635
      y: 0.1878447387066975
      z: 0.0
    velocity: 
      x: 0.0
      y: 0.0
      z: 0.0
    radius: 0.30311869879461956
    true_radius: 0.05311869879461956
---
header: 
  seq: 1276
  stamp: 
    secs: 1690958043
    nsecs: 760147000
  frame_id: "laser_frame"
segments: 
  - 
    first_point: 
      x: -2.939720513121898
      y: 0.6352200674455771
      z: 0.0
    last_point: 
      x: -3.1315140248166538
      y: -0.6619151293610129
      z: 0.0
  - 
    first_point: 
      x: -0.8004687906588763
      y: -2.122033879483927
      z: 0.0
    last_point: 
      x: 0.0529669848734788
      y: -2.126397582397316
      z: 0.0
circles: 
  - 
    center: 
      x: -0.5310826446496493
      y: -0.1939804069454003
      z: 0.0
    velocity: 
      x: 0.0
      y: 0.0
      z: 0.0
    radius: 0.313930614917022
    true_radius: 0.06393061491702201
  - 
    center: 
      x: 0.13831005972578644
      y: -0.9800493613327925
      z: 0.0
    velocity: 
      x: 0.0
      y: 0.0
      z: 0.0
    radius: 0.33995989133670035
    true_radius: 0.08995989133670035
  - 
    center: 
      x: 0.14868299035010285
      y: -0.0051716927207710855
      z: 0.0
    velocity: 
      x: 0.0
      y: 0.0
      z: 0.0
    radius: 0.3908474253856109
    true_radius: 0.1408474253856109
  - 
    center: 
      x: -0.40155284122771506
      y: 0.18898951784064683
      z: 0.0
    velocity: 
      x: 0.0
      y: 0.0
      z: 0.0
    radius: 0.2987482654692664
    true_radius: 0.048748265469266416
---
header: 
  seq: 1277
  stamp: 
    secs: 1690958043
    nsecs: 859547000
  frame_id: "laser_frame"
segments: 
  - 
    first_point: 
      x: -2.9286460951176116
      y: 0.6321957928512996
      z: 0.0
    last_point: 
      x: -3.1466029666147906
      y: -0.7049054399278624
      z: 0.0
  - 
    first_point: 
      x: -0.8004685776263448
      y: -2.1197770694300107
      z: 0.0
    last_point: 
      x: 0.052850307669061715
      y: -2.1272916353827047
      z: 0.0
circles: 
  - 
    center: 
      x: -0.5314510597352549
      y: -0.19338497489063108
      z: 0.0
    velocity: 
      x: 0.0
      y: 0.0
      z: 0.0
    radius: 0.3142380017655018
    true_radius: 0.06423800176550182
  - 
    center: 
      x: 0.13897399354218512
      y: -0.9805258257998585
      z: 0.0
    velocity: 
      x: 0.0
      y: 0.0
      z: 0.0
    radius: 0.33998511600924985
    true_radius: 0.08998511600924985
  - 
    center: 
      x: 0.14240512836439306
      y: -0.014614710618011301
      z: 0.0
    velocity: 
      x: 0.0
      y: 0.0
      z: 0.0
    radius: 0.383807736434586
    true_radius: 0.133807736434586
  - 
    center: 
      x: -0.3109641321685004
      y: 1.4210922626663716
      z: 0.0
    velocity: 
      x: 0.0
      y: 0.0
      z: 0.0
    radius: 0.37227721029233163
    true_radius: 0.12227721029233163
  - 
    center: 
      x: -0.399948162527304
      y: 0.18539193917936747
      z: 0.0
    velocity: 
      x: 0.0
      y: 0.0
      z: 0.0
    radius: 0.29550240920830556
    true_radius: 0.04550240920830556
---
header: 
  seq: 1278
  stamp: 
    secs: 1690958043
    nsecs: 958947000
  frame_id: "laser_frame"
segments: 
  - 
    first_point: 
      x: -0.7705705741774309
      y: -2.1170399171348104
      z: 0.0
    last_point: 
      x: 3.442209224948901e-05
      y: -2.126031802824723
      z: 0.0
  - 
    first_point: 
      x: -2.9387833878662684
      y: 0.6361265607107932
      z: 0.0
    last_point: 
      x: -3.0070039587864863
      y: -0.0020303150841354516
      z: 0.0
circles: 
  - 
    center: 
      x: -0.5350762406911287
      y: -0.19616593544632538
      z: 0.0
    velocity: 
      x: 0.0
      y: 0.0
      z: 0.0
    radius: 0.3213737340935396
    true_radius: 0.07137373409353959
  - 
    center: 
      x: 0.1382924577162095
      y: -0.978052905472551
      z: 0.0
    velocity: 
      x: 0.0
      y: 0.0
      z: 0.0
    radius: 0.33925555169742877
    true_radius: 0.08925555169742877
  - 
    center: 
      x: 0.1439308299521606
      y: -0.0009096840804631373
      z: 0.0
    velocity: 
      x: 0.0
      y: 0.0
      z: 0.0
    radius: 0.3890029015746108
    true_radius: 0.13900290157461082
  - 
    center: 
      x: -0.4002565716985525
      y: 0.1882887194475562
      z: 0.0
    velocity: 
      x: 0.0
      y: 0.0
      z: 0.0
    radius: 0.2982522050177956
    true_radius: 0.04825220501779559
---
header: 
  seq: 1279
  stamp: 
    secs: 1690958044
    nsecs:  58547000
  frame_id: "laser_frame"
segments: 
  - 
    first_point: 
      x: -0.8001144760277056
      y: -2.119414475921215
      z: 0.0
    last_point: 
      x: 0.05280679537727547
      y: -2.1256454238031224
      z: 0.0
  - 
    first_point: 
      x: -2.9293426526854285
      y: 0.6748827059301934
      z: 0.0
    last_point: 
      x: -3.0022465926804087
      y: -0.0035194148338465645
      z: 0.0
circles: 
  - 
    center: 
      x: -0.5356412741746244
      y: -0.19723451985720222
      z: 0.0
    velocity: 
      x: 0.0
      y: 0.0
      z: 0.0
    radius: 0.321126064452296
    true_radius: 0.07112606445229602
  - 
    center: 
      x: 0.13185256485870425
      y: -0.97552660748632
      z: 0.0
    velocity: 
      x: 0.0
      y: 0.0
      z: 0.0
    radius: 0.33226679839880224
    true_radius: 0.08226679839880224
  - 
    center: 
      x: 0.13879360734392798
      y: -0.007818952163341253
      z: 0.0
    velocity: 
      x: 0.0
      y: 0.0
      z: 0.0
    radius: 0.38206411328624507
    true_radius: 0.13206411328624507
  - 
    center: 
      x: -0.30255641642107906
      y: 1.4257308531608486
      z: 0.0
    velocity: 
      x: 0.0
      y: 0.0
      z: 0.0
    radius: 0.37696017482047206
    true_radius: 0.12696017482047206
  - 
    center: 
      x: -0.42183130263188673
      y: 0.19069374484125648
      z: 0.0
    velocity: 
      x: 0.0
      y: 0.0
      z: 0.0
    radius: 0.3154158809971099
    true_radius: 0.06541588099710988
---
header: 
  seq: 1280
  stamp: 
    secs: 1690958044
    nsecs: 158147000
  frame_id: "laser_frame"
segments: 
  - 
    first_point: 
      x: -0.8004670585643819
      y: -2.1198191298983358
      z: 0.0
    last_point: 
      x: 0.052857831254847304
      y: -2.126815128078365
      z: 0.0
  - 
    first_point: 
      x: -2.9559578333662975
      y: 0.6814427528453568
      z: 0.0
    last_point: 
      x: -3.0111691257991997
      y: -0.002729672965381717
      z: 0.0
circles: 
  - 
    center: 
      x: -0.5350473239858794
      y: -0.19683533180444676
      z: 0.0
    velocity: 
      x: 0.0
      y: 0.0
      z: 0.0
    radius: 0.3209174833739915
    true_radius: 0.07091748337399151
  - 
    center: 
      x: 0.13788160645829453
      y: -0.9803062339508121
      z: 0.0
    velocity: 
      x: 0.0
      y: 0.0
      z: 0.0
    radius: 0.34027002682283713
    true_radius: 0.09027002682283713
  - 
    center: 
      x: 0.14642805080457907
      y: -0.015234685954345514
      z: 0.0
    velocity: 
      x: 0.0
      y: 0.0
      z: 0.0
    radius: 0.3885480324041506
    true_radius: 0.1385480324041506
  - 
    center: 
      x: -0.42076171811841856
      y: 0.1903883554088639
      z: 0.0
    velocity: 
      x: 0.0
      y: 0.0
      z: 0.0
    radius: 0.31444284662181143
    true_radius: 0.06444284662181143
---
header: 
  seq: 1281
  stamp: 
    secs: 1690958044
    nsecs: 257747000
  frame_id: "laser_frame"
segments: 
  - 
    first_point: 
      x: -3.094786821354437
      y: -0.03896502834137249
      z: 0.0
    last_point: 
      x: -3.084554210675215
      y: -0.6479093030728723
      z: 0.0
  - 
    first_point: 
      x: -0.8001049332739791
      y: -2.1179346776967756
      z: 0.0
    last_point: 
      x: 0.07894729905113988
      y: -2.124872546745963
      z: 0.0
circles: 
  - 
    center: 
      x: -0.5332050473649788
      y: -0.1918564387956856
      z: 0.0
    velocity: 
      x: 0.0
      y: 0.0
      z: 0.0
    radius: 0.31698237047576944
    true_radius: 0.06698237047576944
  - 
    center: 
      x: 0.1436705631562226
      y: -0.974478315691193
      z: 0.0
    velocity: 
      x: 0.0
      y: 0.0
      z: 0.0
    radius: 0.33248620303857584
    true_radius: 0.08248620303857584
  - 
    center: 
      x: 0.13818475074291042
      y: -0.010701722665902066
      z: 0.0
    velocity: 
      x: 0.0
      y: 0.0
      z: 0.0
    radius: 0.3856344716065484
    true_radius: 0.1356344716065484
  - 
    center: 
      x: -0.3035912150804936
      y: 1.42231909862287
      z: 0.0
    velocity: 
      x: 0.0
      y: 0.0
      z: 0.0
    radius: 0.3762051420860377
    true_radius: 0.12620514208603772
  - 
    center: 
      x: -0.41994693246555265
      y: 0.19319261582207548
      z: 0.0
    velocity: 
      x: 0.0
      y: 0.0
      z: 0.0
    radius: 0.3170856866093759
    true_radius: 0.06708568660937592
---
header: 
  seq: 1282
  stamp: 
    secs: 1690958044
    nsecs: 357347000
  frame_id: "laser_frame"
segments: 
  - 
    first_point: 
      x: -0.8011386793562183
      y: -2.1176624880390316
      z: 0.0
    last_point: 
      x: 0.02656144739924121
      y: -2.1269799955344877
      z: 0.0
  - 
    first_point: 
      x: -2.9350407712570448
      y: 0.6746385109953437
      z: 0.0
    last_point: 
      x: -3.0039793770323775
      y: -0.0009201169504714889
      z: 0.0
circles: 
  - 
    center: 
      x: -0.5350903279948355
      y: -0.19638432650030122
      z: 0.0
    velocity: 
      x: 0.0
      y: 0.0
      z: 0.0
    radius: 0.321328219724922
    true_radius: 0.07132821972492198
  - 
    center: 
      x: 0.13778424073973078
      y: -0.981088527100383
      z: 0.0
    velocity: 
      x: 0.0
      y: 0.0
      z: 0.0
    radius: 0.3406619271251993
    true_radius: 0.09066192712519933
  - 
    center: 
      x: 0.14260829041726242
      y: -0.016898780154984982
      z: 0.0
    velocity: 
      x: 0.0
      y: 0.0
      z: 0.0
    radius: 0.38494868792337766
    true_radius: 0.13494868792337766
  - 
    center: 
      x: -0.4218891866853562
      y: 0.18993048163347723
      z: 0.0
    velocity: 
      x: 0.0
      y: 0.0
      z: 0.0
    radius: 0.31632584853015944
    true_radius: 0.06632584853015944
---
header: 
  seq: 1283
  stamp: 
    secs: 1690958044
    nsecs: 456947000
  frame_id: "laser_frame"
segments: 
  - 
    first_point: 
      x: -0.7709218298912248
      y: -2.119244632948702
      z: 0.0
    last_point: 
      x: 0.0527493586468313
      y: -2.125007613570002
      z: 0.0
circles: 
  - 
    center: 
      x: -0.5350436638600543
      y: -0.19648852699334185
      z: 0.0
    velocity: 
      x: 0.0
      y: 0.0
      z: 0.0
    radius: 0.3212541876392413
    true_radius: 0.0712541876392413
  - 
    center: 
      x: 0.14431605431639044
      y: -0.983519396138992
      z: 0.0
    velocity: 
      x: 0.0
      y: 0.0
      z: 0.0
    radius: 0.3474361415057489
    true_radius: 0.09743614150574892
  - 
    center: 
      x: 0.142501742120482
      y: -0.014083913200086869
      z: 0.0
    velocity: 
      x: 0.0
      y: 0.0
      z: 0.0
    radius: 0.3880598719117932
    true_radius: 0.1380598719117932
  - 
    center: 
      x: -0.3099465398844923
      y: 1.4211694122154328
      z: 0.0
    velocity: 
      x: 0.0
      y: 0.0
      z: 0.0
    radius: 0.36914446582012783
    true_radius: 0.11914446582012783
  - 
    center: 
      x: -0.3999384378398658
      y: 0.1887001975421721
      z: 0.0
    velocity: 
      x: 0.0
      y: 0.0
      z: 0.0
    radius: 0.29725150841380105
    true_radius: 0.04725150841380105
  - 
    center: 
      x: -3.047874817133728
      y: 0.4951629447276225
      z: 0.0
    velocity: 
      x: 0.0
      y: 0.0
      z: 0.0
    radius: 0.4540136367756491
    true_radius: 0.2040136367756491
---
header: 
  seq: 1284
  stamp: 
    secs: 1690958044
    nsecs: 556547000
  frame_id: "laser_frame"
segments: 
  - 
    first_point: 
      x: -0.8004544447236857
      y: -2.11798274851994
      z: 0.0
    last_point: 
      x: 0.05277925499591522
      y: -2.1266152644095553
      z: 0.0
circles: 
  - 
    center: 
      x: -3.243144480422283
      y: -0.35739277445593326
      z: 0.0
    velocity: 
      x: 0.0
      y: 0.0
      z: 0.0
    radius: 0.5881470570917711
    true_radius: 0.33814705709177106
  - 
    center: 
      x: -0.5357786372023922
      y: -0.19714593100940067
      z: 0.0
    velocity: 
      x: 0.0
      y: 0.0
      z: 0.0
    radius: 0.32132934883341685
    true_radius: 0.07132934883341685
  - 
    center: 
      x: 0.13202441977191015
      y: -0.975822138989461
      z: 0.0
    velocity: 
      x: 0.0
      y: 0.0
      z: 0.0
    radius: 0.33226671743784486
    true_radius: 0.08226671743784486
  - 
    center: 
      x: 0.1386763885955426
      y: -0.007971062307926451
      z: 0.0
    velocity: 
      x: 0.0
      y: 0.0
      z: 0.0
    radius: 0.3820530167967603
    true_radius: 0.1320530167967603
  - 
    center: 
      x: -0.42119328649968313
      y: 0.193766982325512
      z: 0.0
    velocity: 
      x: 0.0
      y: 0.0
      z: 0.0
    radius: 0.3183153873564215
    true_radius: 0.06831538735642151
  - 
    center: 
      x: -3.0398056844384302
      y: 0.49483390422682705
      z: 0.0
    velocity: 
      x: 0.0
      y: 0.0
      z: 0.0
    radius: 0.45176252686912505
    true_radius: 0.20176252686912505
---
header: 
  seq: 1285
  stamp: 
    secs: 1690958044
    nsecs: 656147000
  frame_id: "laser_frame"
segments: 
  - 
    first_point: 
      x: -0.7997686074555564
      y: -2.1193897367160224
      z: 0.0
    last_point: 
      x: 0.05280351008738251
      y: -2.125851352140972
      z: 0.0
  - 
    first_point: 
      x: -2.9388870148371615
      y: 0.677107931892058
      z: 0.0
    last_point: 
      x: -3.006834538298942
      y: -0.003410881968830094
      z: 0.0
circles: 
  - 
    center: 
      x: -0.5352005744603316
      y: -0.19665001103737847
      z: 0.0
    velocity: 
      x: 0.0
      y: 0.0
      z: 0.0
    radius: 0.3209451073167276
    true_radius: 0.0709451073167276
  - 
    center: 
      x: 0.13775224020440202
      y: -0.9806612121647862
      z: 0.0
    velocity: 
      x: 0.0
      y: 0.0
      z: 0.0
    radius: 0.34025747056555
    true_radius: 0.09025747056555
  - 
    center: 
      x: 0.1476526249932062
      y: -0.014582759637583098
      z: 0.0
    velocity: 
      x: 0.0
      y: 0.0
      z: 0.0
    radius: 0.388608496924436
    true_radius: 0.138608496924436
  - 
    center: 
      x: -0.4211705673222586
      y: 0.1906392719144285
      z: 0.0
    velocity: 
      x: 0.0
      y: 0.0
      z: 0.0
    radius: 0.31474150295801034
    true_radius: 0.06474150295801034
---
header: 
  seq: 1286
  stamp: 
    secs: 1690958044
    nsecs: 755747000
  frame_id: "laser_frame"
segments: 
  - 
    first_point: 
      x: -0.8018459978995468
      y: -2.119076026541781
      z: 0.0
    last_point: 
      x: 0.05277364985815969
      y: -2.1255291048835003
      z: 0.0
circles: 
  - 
    center: 
      x: -3.248153295878512
      y: -0.3596785066992644
      z: 0.0
    velocity: 
      x: 0.0
      y: 0.0
      z: 0.0
    radius: 0.586407755610973
    true_radius: 0.336407755610973
  - 
    center: 
      x: -0.5329823858225147
      y: -0.19285438985658934
      z: 0.0
    velocity: 
      x: 0.0
      y: 0.0
      z: 0.0
    radius: 0.3166915400995708
    true_radius: 0.06669154009957079
  - 
    center: 
      x: 0.14442871879152622
      y: -0.9829784517302579
      z: 0.0
    velocity: 
      x: 0.0
      y: 0.0
      z: 0.0
    radius: 0.3472971737086683
    true_radius: 0.0972971737086683
  - 
    center: 
      x: 0.1417332837992808
      y: -0.013210363843659298
      z: 0.0
    velocity: 
      x: 0.0
      y: 0.0
      z: 0.0
    radius: 0.38812655156608394
    true_radius: 0.13812655156608394
  - 
    center: 
      x: -0.4202461286367314
      y: 0.19336064653425172
      z: 0.0
    velocity: 
      x: 0.0
      y: 0.0
      z: 0.0
    radius: 0.31754032437204976
    true_radius: 0.06754032437204976
---
header: 
  seq: 1287
  stamp: 
    secs: 1690958044
    nsecs: 855347000
  frame_id: "laser_frame"
segments: 
  - 
    first_point: 
      x: -0.8001176506901458
      y: -2.119599741126102
      z: 0.0
    last_point: 
      x: 0.02652188505069169
      y: -2.1260323074283396
      z: 0.0
  - 
    first_point: 
      x: -2.9533427014236477
      y: 0.6807857113687699
      z: 0.0
    last_point: 
      x: -2.9991986501305004
      y: -0.00133075788787203
      z: 0.0
circles: 
  - 
    center: 
      x: -0.5355232965028781
      y: -0.19659978250257557
      z: 0.0
    velocity: 
      x: 0.0
      y: 0.0
      z: 0.0
    radius: 0.32091301837761704
    true_radius: 0.07091301837761704
  - 
    center: 
      x: 0.13804069055026316
      y: -0.9799982700109073
      z: 0.0
    velocity: 
      x: 0.0
      y: 0.0
      z: 0.0
    radius: 0.3401009631927049
    true_radius: 0.09010096319270489
  - 
    center: 
      x: 0.14881295307325965
      y: -0.0037194216668627227
      z: 0.0
    velocity: 
      x: 0.0
      y: 0.0
      z: 0.0
    radius: 0.39497928732244336
    true_radius: 0.14497928732244336
  - 
    center: 
      x: -0.42066234995907636
      y: 0.19028656370571206
      z: 0.0
    velocity: 
      x: 0.0
      y: 0.0
      z: 0.0
    radius: 0.31445475361443487
    true_radius: 0.06445475361443487
---
header: 
  seq: 1288
  stamp: 
    secs: 1690958044
    nsecs: 954747000
  frame_id: "laser_frame"
segments: 
  - 
    first_point: 
      x: -0.7709336939697191
      y: -2.1205206383570596
      z: 0.0
    last_point: 
      x: 0.052821013154219325
      y: -2.1272700022213478
      z: 0.0
  - 
    first_point: 
      x: -2.9362769077675344
      y: 0.6787650780542184
      z: 0.0
    last_point: 
      x: -2.996850021499449
      y: -0.0015266169797119357
      z: 0.0
circles: 
  - 
    center: 
      x: -0.5350436638600543
      y: -0.19648852699334185
      z: 0.0
    velocity: 
      x: 0.0
      y: 0.0
      z: 0.0
    radius: 0.3212541876392413
    true_radius: 0.0712541876392413
  - 
    center: 
      x: 0.14396698622375662
      y: -0.9832271539036583
      z: 0.0
    velocity: 
      x: 0.0
      y: 0.0
      z: 0.0
    radius: 0.34718233212221156
    true_radius: 0.09718233212221156
  - 
    center: 
      x: 0.1464325507920587
      y: -0.004892561570858935
      z: 0.0
    velocity: 
      x: 0.0
      y: 0.0
      z: 0.0
    radius: 0.39755366193597574
    true_radius: 0.14755366193597574
  - 
    center: 
      x: -0.39963364374390503
      y: 0.19153183723034978
      z: 0.0
    velocity: 
      x: 0.0
      y: 0.0
      z: 0.0
    radius: 0.299997109910718
    true_radius: 0.049997109910717985
---
header: 
  seq: 1289
  stamp: 
    secs: 1690958045
    nsecs:  54547000
  frame_id: "laser_frame"
segments: 
  - 
    first_point: 
      x: -3.1045127264541508
      y: -0.03835451862843968
      z: 0.0
    last_point: 
      x: -3.0991607715928935
      y: -0.6511827569976351
      z: 0.0
  - 
    first_point: 
      x: -0.8276596929776634
      y: -2.117164669395802
      z: 0.0
    last_point: 
      x: 0.05471982922544636
      y: -2.1335312948818594
      z: 0.0
circles: 
  - 
    center: 
      x: -0.5337335998785742
      y: -0.1981500387783706
      z: 0.0
    velocity: 
      x: 0.0
      y: 0.0
      z: 0.0
    radius: 0.31866450896384024
    true_radius: 0.06866450896384024
  - 
    center: 
      x: 0.13729444645909256
      y: -0.970972526955714
      z: 0.0
    velocity: 
      x: 0.0
      y: 0.0
      z: 0.0
    radius: 0.3252369098684956
    true_radius: 0.07523690986849563
  - 
    center: 
      x: 0.13953832306236064
      y: -0.006565939097115215
      z: 0.0
    velocity: 
      x: 0.0
      y: 0.0
      z: 0.0
    radius: 0.38008162546267465
    true_radius: 0.13008162546267465
  - 
    center: 
      x: -0.31009677929541435
      y: 1.422377866310389
      z: 0.0
    velocity: 
      x: 0.0
      y: 0.0
      z: 0.0
    radius: 0.37111218281835007
    true_radius: 0.12111218281835007
  - 
    center: 
      x: -0.42210048255224386
      y: 0.19090368466005259
      z: 0.0
    velocity: 
      x: 0.0
      y: 0.0
      z: 0.0
    radius: 0.3161059277336996
    true_radius: 0.06610592773369961
  - 
    center: 
      x: -3.0398190573994284
      y: 0.4955291905963805
      z: 0.0
    velocity: 
      x: 0.0
      y: 0.0
      z: 0.0
    radius: 0.4520208771077744
    true_radius: 0.2020208771077744
---
header: 
  seq: 1290
  stamp: 
    secs: 1690958045
    nsecs: 154147000
  frame_id: "laser_frame"
segments: 
  - 
    first_point: 
      x: -0.801128684743596
      y: -2.11701269874201
      z: 0.0
    last_point: 
      x: 0.026554706635732915
      y: -2.1277442809734692
      z: 0.0
  - 
    first_point: 
      x: -2.9717876990859913
      y: 0.6428646977372343
      z: 0.0
    last_point: 
      x: -2.9377025785934343
      y: 0.29944090499838644
      z: 0.0
circles: 
  - 
    center: 
      x: -3.2678060423062774
      y: -0.36092947420425453
      z: 0.0
    velocity: 
      x: 0.0
      y: 0.0
      z: 0.0
    radius: 0.588673460425944
    true_radius: 0.33867346042594404
  - 
    center: 
      x: -0.5308956740348527
      y: -0.19862029439868342
      z: 0.0
    velocity: 
      x: 0.0
      y: 0.0
      z: 0.0
    radius: 0.3159482020370783
    true_radius: 0.0659482020370783
  - 
    center: 
      x: 0.13231832665022028
      y: -0.974348588772554
      z: 0.0
    velocity: 
      x: 0.0
      y: 0.0
      z: 0.0
    radius: 0.3317602912719841
    true_radius: 0.08176029127198409
  - 
    center: 
      x: 0.14555246489713775
      y: 0.0006500338694429471
      z: 0.0
    velocity: 
      x: 0.0
      y: 0.0
      z: 0.0
    radius: 0.3904095287279832
    true_radius: 0.14040952872798318
  - 
    center: 
      x: -0.4020148150712483
      y: 0.1890908905357573
      z: 0.0
    velocity: 
      x: 0.0
      y: 0.0
      z: 0.0
    radius: 0.2992666445207451
    true_radius: 0.049266644520745084
---
header: 
  seq: 1291
  stamp: 
    secs: 1690958045
    nsecs: 253947000
  frame_id: "laser_frame"
segments: 
  - 
    first_point: 
      x: -3.0935387441772066
      y: -0.03706511827113273
      z: 0.0
    last_point: 
      x: -3.097862254529923
      y: -0.6913164312592454
      z: 0.0
  - 
    first_point: 
      x: -0.8001204536262314
      y: -2.1211329445785485
      z: 0.0
    last_point: 
      x: 0.05296548282465172
      y: -2.126317991252412
      z: 0.0
circles: 
  - 
    center: 
      x: -0.5341710080699652
      y: -0.19290756079441768
      z: 0.0
    velocity: 
      x: 0.0
      y: 0.0
      z: 0.0
    radius: 0.317172233420427
    true_radius: 0.067172233420427
  - 
    center: 
      x: 0.13844126501532847
      y: -0.9801044283848881
      z: 0.0
    velocity: 
      x: 0.0
      y: 0.0
      z: 0.0
    radius: 0.339942936799737
    true_radius: 0.08994293679973703
  - 
    center: 
      x: 0.14138003231606594
      y: -0.01214696324326565
      z: 0.0
    velocity: 
      x: 0.0
      y: 0.0
      z: 0.0
    radius: 0.3848828222766917
    true_radius: 0.13488282227669168
  - 
    center: 
      x: -0.4005169632012176
      y: 0.18876710903915234
      z: 0.0
    velocity: 
      x: 0.0
      y: 0.0
      z: 0.0
    radius: 0.29789359835671636
    true_radius: 0.04789359835671636
---
header: 
  seq: 1292
  stamp: 
    secs: 1690958045
    nsecs: 353547000
  frame_id: "laser_frame"
segments: 
  - 
    first_point: 
      x: -0.801830380027713
      y: -2.117798769625739
      z: 0.0
    last_point: 
      x: 0.05268167682940953
      y: -2.1261751623852274
      z: 0.0
circles: 
  - 
    center: 
      x: -0.5308437221189727
      y: -0.19447929309899237
      z: 0.0
    velocity: 
      x: 0.0
      y: 0.0
      z: 0.0
    radius: 0.3134659658072004
    true_radius: 0.06346596580720038
  - 
    center: 
      x: 0.138449380991468
      y: -0.9782661417648632
      z: 0.0
    velocity: 
      x: 0.0
      y: 0.0
      z: 0.0
    radius: 0.339153380017237
    true_radius: 0.089153380017237
  - 
    center: 
      x: 0.14070601787668602
      y: -0.013768475775978777
      z: 0.0
    velocity: 
      x: 0.0
      y: 0.0
      z: 0.0
    radius: 0.38808006106053666
    true_radius: 0.13808006106053666
  - 
    center: 
      x: -0.40745804144967457
      y: 0.1916901377489529
      z: 0.0
    velocity: 
      x: 0.0
      y: 0.0
      z: 0.0
    radius: 0.30652107203925394
    true_radius: 0.05652107203925394
---
header: 
  seq: 1293
  stamp: 
    secs: 1690958045
    nsecs: 453347000
  frame_id: "laser_frame"
segments: 
  - 
    first_point: 
      x: -2.9398644473856224
      y: 0.635622367272227
      z: 0.0
    last_point: 
      x: -3.125980334146137
      y: -0.6606620037764999
      z: 0.0
  - 
    first_point: 
      x: -0.8004573328678973
      y: -2.1238341425883234
      z: 0.0
    last_point: 
      x: 0.0530287353630843
      y: -2.1257225772207633
      z: 0.0
circles: 
  - 
    center: 
      x: -0.531262908771577
      y: -0.19373222579134705
      z: 0.0
    velocity: 
      x: 0.0
      y: 0.0
      z: 0.0
    radius: 0.314019650670164
    true_radius: 0.06401965067016402
  - 
    center: 
      x: 0.13864663325041865
      y: -0.9794218489630574
      z: 0.0
    velocity: 
      x: 0.0
      y: 0.0
      z: 0.0
    radius: 0.3396193812858097
    true_radius: 0.08961938128580971
  - 
    center: 
      x: 0.1414321478494837
      y: -0.010797466621734069
      z: 0.0
    velocity: 
      x: 0.0
      y: 0.0
      z: 0.0
    radius: 0.38479866412435404
    true_radius: 0.13479866412435404
  - 
    center: 
      x: -0.3999633979915465
      y: 0.18850464060187858
      z: 0.0
    velocity: 
      x: 0.0
      y: 0.0
      z: 0.0
    radius: 0.29758865014385893
    true_radius: 0.047588650143858935
---
header: 
  seq: 1294
  stamp: 
    secs: 1690958045
    nsecs: 552947000
  frame_id: "laser_frame"
segments: 
  - 
    first_point: 
      x: -0.801155126077021
      y: -2.1192247803079547
      z: 0.0
    last_point: 
      x: 0.02651335294882745
      y: -2.127075943492003
      z: 0.0
  - 
    first_point: 
      x: -2.927630890807732
      y: 0.6348020937712212
      z: 0.0
    last_point: 
      x: -2.99299187391466
      y: -0.0020530420828831926
      z: 0.0
circles: 
  - 
    center: 
      x: -0.5352534716127997
      y: -0.19666140846140445
      z: 0.0
    velocity: 
      x: 0.0
      y: 0.0
      z: 0.0
    radius: 0.32094718732802896
    true_radius: 0.07094718732802896
  - 
    center: 
      x: 0.13789079450931432
      y: -0.9801637145452057
      z: 0.0
    velocity: 
      x: 0.0
      y: 0.0
      z: 0.0
    radius: 0.3402690034056103
    true_radius: 0.09026900340561028
  - 
    center: 
      x: 0.14886881166064747
      y: -0.0005644014488336412
      z: 0.0
    velocity: 
      x: 0.0
      y: 0.0
      z: 0.0
    radius: 0.3946128252630099
    true_radius: 0.1446128252630099
  - 
    center: 
      x: -0.4034996444715386
      y: 0.1867391159707743
      z: 0.0
    velocity: 
      x: 0.0
      y: 0.0
      z: 0.0
    radius: 0.30204183822755104
    true_radius: 0.05204183822755104
---
header: 
  seq: 1295
  stamp: 
    secs: 1690958045
    nsecs: 652747000
  frame_id: "laser_frame"
segments: 
  - 
    first_point: 
      x: -2.9374448788805894
      y: 0.6751973492452121
      z: 0.0
    last_point: 
      x: -3.1245847513855387
      y: -0.6635585875330067
      z: 0.0
  - 
    first_point: 
      x: -0.7997589434315399
      y: -2.116900838634912
      z: 0.0
    last_point: 
      x: 0.05309128962521583
      y: -2.1271705604149247
      z: 0.0
circles: 
  - 
    center: 
      x: -0.5329136199126455
      y: -0.19831603640617385
      z: 0.0
    velocity: 
      x: 0.0
      y: 0.0
      z: 0.0
    radius: 0.31798542930494356
    true_radius: 0.06798542930494356
  - 
    center: 
      x: 0.143618535083163
      y: -0.9744823745818108
      z: 0.0
    velocity: 
      x: 0.0
      y: 0.0
      z: 0.0
    radius: 0.3324875035583977
    true_radius: 0.08248750355839768
  - 
    center: 
      x: 0.137863340959369
      y: -0.008946855851432118
      z: 0.0
    velocity: 
      x: 0.0
      y: 0.0
      z: 0.0
    radius: 0.3754854144608797
    true_radius: 0.12548541446087969
  - 
    center: 
      x: -0.3112244981639767
      y: 1.4201672457680847
      z: 0.0
    velocity: 
      x: 0.0
      y: 0.0
      z: 0.0
    radius: 0.3700046234440607
    true_radius: 0.12000462344406071
  - 
    center: 
      x: -0.41777619630974105
      y: 0.18720528493656186
      z: 0.0
    velocity: 
      x: 0.0
      y: 0.0
      z: 0.0
    radius: 0.31388590963933505
    true_radius: 0.06388590963933505
---
header: 
  seq: 1296
  stamp: 
    secs: 1690958045
    nsecs: 752347000
  frame_id: "laser_frame"
segments: 
  - 
    first_point: 
      x: -0.8255195274850843
      y: -2.114191656527425
      z: 0.0
    last_point: 
      x: 0.05298793231724885
      y: -2.130753038324191
      z: 0.0
circles: 
  - 
    center: 
      x: -3.272117708416708
      y: -0.35251590176919023
      z: 0.0
    velocity: 
      x: 0.0
      y: 0.0
      z: 0.0
    radius: 0.5972504875387639
    true_radius: 0.34725048753876386
  - 
    center: 
      x: -0.5312933442017755
      y: -0.19883236122241282
      z: 0.0
    velocity: 
      x: 0.0
      y: 0.0
      z: 0.0
    radius: 0.31620046276987923
    true_radius: 0.06620046276987923
  - 
    center: 
      x: 0.13731758767019198
      y: -0.9703437748338745
      z: 0.0
    velocity: 
      x: 0.0
      y: 0.0
      z: 0.0
    radius: 0.3251466525858114
    true_radius: 0.07514665258581138
  - 
    center: 
      x: 0.14861347576101386
      y: -0.002663292587217003
      z: 0.0
    velocity: 
      x: 0.0
      y: 0.0
      z: 0.0
    radius: 0.39002296601587627
    true_radius: 0.14002296601587627
  - 
    center: 
      x: -0.39874697781769824
      y: 0.18789259727867738
      z: 0.0
    velocity: 
      x: 0.0
      y: 0.0
      z: 0.0
    radius: 0.29688372725915324
    true_radius: 0.04688372725915324
  - 
    center: 
      x: -3.0300957665231856
      y: 0.4537156406027801
      z: 0.0
    velocity: 
      x: 0.0
      y: 0.0
      z: 0.0
    radius: 0.4472910544060218
    true_radius: 0.1972910544060218
---
header: 
  seq: 1297
  stamp: 
    secs: 1690958045
    nsecs: 851947000
  frame_id: "laser_frame"
segments: 
  - 
    first_point: 
      x: -0.8004664442939493
      y: -2.1212789338510123
      z: 0.0
    last_point: 
      x: 0.05296887370708365
      y: -2.1259254051637577
      z: 0.0
circles: 
  - 
    center: 
      x: -0.5354930472898822
      y: -0.1966843815161601
      z: 0.0
    velocity: 
      x: 0.0
      y: 0.0
      z: 0.0
    radius: 0.3209459135375967
    true_radius: 0.07094591353759672
  - 
    center: 
      x: 0.1383039091580311
      y: -0.9799079833004926
      z: 0.0
    velocity: 
      x: 0.0
      y: 0.0
      z: 0.0
    radius: 0.33995991626227107
    true_radius: 0.08995991626227107
  - 
    center: 
      x: 0.13953330510864786
      y: -0.010753808939525046
      z: 0.0
    velocity: 
      x: 0.0
      y: 0.0
      z: 0.0
    radius: 0.3850055777568975
    true_radius: 0.13500557775689748
  - 
    center: 
      x: -0.40135119965431393
      y: 0.189054953539147
      z: 0.0
    velocity: 
      x: 0.0
      y: 0.0
      z: 0.0
    radius: 0.2985878691054391
    true_radius: 0.04858786910543911
  - 
    center: 
      x: -3.054461621761572
      y: 0.37711984171451174
      z: 0.0
    velocity: 
      x: 0.0
      y: 0.0
      z: 0.0
    radius: 0.4849432362380883
    true_radius: 0.23494323623808833
---
header: 
  seq: 1298
  stamp: 
    secs: 1690958045
    nsecs: 951547000
  frame_id: "laser_frame"
segments: 
  - 
    first_point: 
      x: -0.8004318259293236
      y: -2.116085175219176
      z: 0.0
    last_point: 
      x: 0.026538351873973846
      y: -2.1289768578696173
      z: 0.0
circles: 
  - 
    center: 
      x: -0.5305617341559499
      y: -0.1947502426431115
      z: 0.0
    velocity: 
      x: 0.0
      y: 0.0
      z: 0.0
    radius: 0.3134126447835772
    true_radius: 0.06341264478357722
  - 
    center: 
      x: 0.13836383531580718
      y: -0.9816629883712193
      z: 0.0
    velocity: 
      x: 0.0
      y: 0.0
      z: 0.0
    radius: 0.3405951729063458
    true_radius: 0.09059517290634578
  - 
    center: 
      x: 0.1410901569943916
      y: -0.013398271782434067
      z: 0.0
    velocity: 
      x: 0.0
      y: 0.0
      z: 0.0
    radius: 0.38811077344879746
    true_radius: 0.13811077344879746
  - 
    center: 
      x: -0.40756277419729015
      y: 0.19166307493451426
      z: 0.0
    velocity: 
      x: 0.0
      y: 0.0
      z: 0.0
    radius: 0.30677404285492893
    true_radius: 0.05677404285492893
---
header: 
  seq: 1299
  stamp: 
    secs: 1690958046
    nsecs:  51347000
  frame_id: "laser_frame"
segments: 
  - 
    first_point: 
      x: -2.918291417276483
      y: 0.630142966506989
      z: 0.0
    last_point: 
      x: -3.1353412713231514
      y: -0.6654328296340029
      z: 0.0
  - 
    first_point: 
      x: -0.8008065560540902
      y: -2.1188067411720093
      z: 0.0
    last_point: 
      x: 0.052985125306333855
      y: -2.1271175789731256
      z: 0.0
circles: 
  - 
    center: 
      x: -0.5338707447684213
      y: -0.19280264981371403
      z: 0.0
    velocity: 
      x: 0.0
      y: 0.0
      z: 0.0
    radius: 0.31700530617253647
    true_radius: 0.06700530617253647
  - 
    center: 
      x: 0.13842743831693888
      y: -0.9794762288190424
      z: 0.0
    velocity: 
      x: 0.0
      y: 0.0
      z: 0.0
    radius: 0.33982635468451095
    true_radius: 0.08982635468451095
  - 
    center: 
      x: 0.14416241868890012
      y: -0.004246455167193894
      z: 0.0
    velocity: 
      x: 0.0
      y: 0.0
      z: 0.0
    radius: 0.39198539493144924
    true_radius: 0.14198539493144924
  - 
    center: 
      x: -0.4254896995319619
      y: 0.18949356955714944
      z: 0.0
    velocity: 
      x: 0.0
      y: 0.0
      z: 0.0
    radius: 0.31998832179705344
    true_radius: 0.06998832179705344
---
header: 
  seq: 1300
  stamp: 
    secs: 1690958046
    nsecs: 150947000
  frame_id: "laser_frame"
segments: 
  - 
    first_point: 
      x: -0.8007874172385857
      y: -2.11699893629571
      z: 0.0
    last_point: 
      x: 2.761901852865186e-05
      y: -2.1267032988218824
      z: 0.0
  - 
    first_point: 
      x: -2.9392650930677386
      y: 0.6806735062779189
      z: 0.0
    last_point: 
      x: -2.99429714151168
      y: -0.001588839621255882
      z: 0.0
circles: 
  - 
    center: 
      x: -0.5329906499757607
      y: -0.1986251341517917
      z: 0.0
    velocity: 
      x: 0.0
      y: 0.0
      z: 0.0
    radius: 0.31823749206439966
    true_radius: 0.06823749206439966
  - 
    center: 
      x: 0.138463941225764
      y: -0.978174099621778
      z: 0.0
    velocity: 
      x: 0.0
      y: 0.0
      z: 0.0
    radius: 0.3392481844608641
    true_radius: 0.08924818446086408
  - 
    center: 
      x: 0.147901596392627
      y: -0.004887905887739501
      z: 0.0
    velocity: 
      x: 0.0
      y: 0.0
      z: 0.0
    radius: 0.3969887939709913
    true_radius: 0.1469887939709913
  - 
    center: 
      x: -0.40687565555164507
      y: 0.19143155903187614
      z: 0.0
    velocity: 
      x: 0.0
      y: 0.0
      z: 0.0
    radius: 0.30629722196439835
    true_radius: 0.05629722196439835
---
header: 
  seq: 1301
  stamp: 
    secs: 1690958046
    nsecs: 250747000
  frame_id: "laser_frame"
segments: 
  - 
    first_point: 
      x: -0.7709322895985709
      y: -2.122197121086746
      z: 0.0
    last_point: 
      x: 0.05297031907352204
      y: -2.1259273441602673
      z: 0.0
  - 
    first_point: 
      x: -2.9143824626117274
      y: 0.6300681178893695
      z: 0.0
    last_point: 
      x: -2.9897523423289636
      y: -0.002768352662730481
      z: 0.0
circles: 
  - 
    center: 
      x: -0.5341776148858647
      y: -0.19295303860606985
      z: 0.0
    velocity: 
      x: 0.0
      y: 0.0
      z: 0.0
    radius: 0.31707223491224
    true_radius: 0.06707223491224001
  - 
    center: 
      x: 0.13833277929410762
      y: -0.9795405499982066
      z: 0.0
    velocity: 
      x: 0.0
      y: 0.0
      z: 0.0
    radius: 0.339933106329176
    true_radius: 0.089933106329176
  - 
    center: 
      x: 0.14368493333728688
      y: 0.0030925408848910606
      z: 0.0
    velocity: 
      x: 0.0
      y: 0.0
      z: 0.0
    radius: 0.3856665766509511
    true_radius: 0.1356665766509511
  - 
    center: 
      x: -0.39479837873515533
      y: 0.1885129578741001
      z: 0.0
    velocity: 
      x: 0.0
      y: 0.0
      z: 0.0
    radius: 0.2927260911874851
    true_radius: 0.042726091187485105
---
header: 
  seq: 1302
  stamp: 
    secs: 1690958046
    nsecs: 350347000
  frame_id: "laser_frame"
segments: 
  - 
    first_point: 
      x: -0.8011242737449894
      y: -2.116718453395818
      z: 0.0
    last_point: 
      x: 0.026581198084267735
      y: -2.1277151144677076
      z: 0.0
  - 
    first_point: 
      x: -2.9439124017379816
      y: 0.6799594674860038
      z: 0.0
    last_point: 
      x: -3.001611175060108
      y: -0.001302925708264707
      z: 0.0
circles: 
  - 
    center: 
      x: -0.53555050603209
      y: -0.1959688122821275
      z: 0.0
    velocity: 
      x: 0.0
      y: 0.0
      z: 0.0
    radius: 0.3219196912854764
    true_radius: 0.07191969128547637
  - 
    center: 
      x: 0.1323527672926729
      y: -0.9746349759158097
      z: 0.0
    velocity: 
      x: 0.0
      y: 0.0
      z: 0.0
    radius: 0.331838420078733
    true_radius: 0.08183842007873299
  - 
    center: 
      x: 0.13814903744460671
      y: -0.008222186422214025
      z: 0.0
    velocity: 
      x: 0.0
      y: 0.0
      z: 0.0
    radius: 0.38203286015089166
    true_radius: 0.13203286015089166
  - 
    center: 
      x: -0.4051775685916227
      y: 0.1903097270263181
      z: 0.0
    velocity: 
      x: 0.0
      y: 0.0
      z: 0.0
    radius: 0.3056318324291557
    true_radius: 0.0556318324291557
---
header: 
  seq: 1303
  stamp: 
    secs: 1690958046
    nsecs: 450147000
  frame_id: "laser_frame"
segments: 
  - 
    first_point: 
      x: -0.7997741358198275
      y: -2.120741625034138
      z: 0.0
    last_point: 
      x: 0.05293100092232468
      y: -2.1265226877901697
      z: 0.0
  - 
    first_point: 
      x: -2.9133131815065556
      y: 0.668384315536078
      z: 0.0
    last_point: 
      x: -2.992053210940438
      y: -0.003509099096478709
      z: 0.0
circles: 
  - 
    center: 
      x: -0.531816063881042
      y: -0.19282782146067767
      z: 0.0
    velocity: 
      x: 0.0
      y: 0.0
      z: 0.0
    radius: 0.31444288500308126
    true_radius: 0.06444288500308126
  - 
    center: 
      x: 0.1383427418278639
      y: -0.9798379968314387
      z: 0.0
    velocity: 
      x: 0.0
      y: 0.0
      z: 0.0
    radius: 0.33982709804314054
    true_radius: 0.08982709804314054
  - 
    center: 
      x: 0.1442135642951983
      y: -0.005027319508007664
      z: 0.0
    velocity: 
      x: 0.0
      y: 0.0
      z: 0.0
    radius: 0.3913593658178228
    true_radius: 0.14135936581782282
  - 
    center: 
      x: -0.40104114016268394
      y: 0.18915659409407642
      z: 0.0
    velocity: 
      x: 0.0
      y: 0.0
      z: 0.0
    radius: 0.2980221199156637
    true_radius: 0.048022119915663686
---
header: 
  seq: 1304
  stamp: 
    secs: 1690958046
    nsecs: 549747000
  frame_id: "laser_frame"
segments: 
  - 
    first_point: 
      x: -0.8015010478646838
      y: -2.119282770016118
      z: 0.0
    last_point: 
      x: 0.052714378273656735
      y: -2.1253333918860244
      z: 0.0
circles: 
  - 
    center: 
      x: -0.530684759680884
      y: -0.19490919593777692
      z: 0.0
    velocity: 
      x: 0.0
      y: 0.0
      z: 0.0
    radius: 0.31316855255496123
    true_radius: 0.06316855255496123
  - 
    center: 
      x: 0.14987282783564015
      y: -0.979072267161634
      z: 0.0
    velocity: 
      x: 0.0
      y: 0.0
      z: 0.0
    radius: 0.34061938692522725
    true_radius: 0.09061938692522725
  - 
    center: 
      x: 0.13937813309573333
      y: -0.016314087672870407
      z: 0.0
    velocity: 
      x: 0.0
      y: 0.0
      z: 0.0
    radius: 0.38780983693024923
    true_radius: 0.13780983693024923
  - 
    center: 
      x: -0.40651857215685466
      y: 0.19119781466997507
      z: 0.0
    velocity: 
      x: 0.0
      y: 0.0
      z: 0.0
    radius: 0.30620345037015273
    true_radius: 0.05620345037015273
---
header: 
  seq: 1305
  stamp: 
    secs: 1690958046
    nsecs: 649547000
  frame_id: "laser_frame"
segments: 
  - 
    first_point: 
      x: -2.92869399367222
      y: 0.6327095658295534
      z: 0.0
    last_point: 
      x: -3.1405734676695225
      y: -0.703343570728541
      z: 0.0
  - 
    first_point: 
      x: -0.7997722712479706
      y: -2.1223248700062407
      z: 0.0
    last_point: 
      x: 0.052995648296137836
      y: -2.1266710906902038
      z: 0.0
circles: 
  - 
    center: 
      x: -0.5318372138911719
      y: -0.18778561249133469
      z: 0.0
    velocity: 
      x: 0.0
      y: 0.0
      z: 0.0
    radius: 0.3133683884435711
    true_radius: 0.06336838844357112
  - 
    center: 
      x: 0.13845877630995265
      y: -0.9792232823728292
      z: 0.0
    velocity: 
      x: 0.0
      y: 0.0
      z: 0.0
    radius: 0.3396232262100641
    true_radius: 0.08962322621006408
  - 
    center: 
      x: 0.14332835256023443
      y: -0.0105902420562617
      z: 0.0
    velocity: 
      x: 0.0
      y: 0.0
      z: 0.0
    radius: 0.384814975947134
    true_radius: 0.13481497594713399
  - 
    center: 
      x: -0.4241368887874157
      y: 0.18510200119167325
      z: 0.0
    velocity: 
      x: 0.0
      y: 0.0
      z: 0.0
    radius: 0.317734640838665
    true_radius: 0.06773464083866498
---
header: 
  seq: 1306
  stamp: 
    secs: 1690958046
    nsecs: 749147000
  frame_id: "laser_frame"
segments: 
  - 
    first_point: 
      x: -0.8011403449857765
      y: -2.1178029778693257
      z: 0.0
    last_point: 
      x: 0.026560678135411655
      y: -2.127031010686333
      z: 0.0
  - 
    first_point: 
      x: -2.9249897128692424
      y: 0.6336816514236657
      z: 0.0
    last_point: 
      x: -2.9948196063665633
      y: -0.0016680331520028799
      z: 0.0
circles: 
  - 
    center: 
      x: -0.5353414654148784
      y: -0.19567192639772701
      z: 0.0
    velocity: 
      x: 0.0
      y: 0.0
      z: 0.0
    radius: 0.32186640585509374
    true_radius: 0.07186640585509374
  - 
    center: 
      x: 0.14441873781359563
      y: -0.9830406411780732
      z: 0.0
    velocity: 
      x: 0.0
      y: 0.0
      z: 0.0
    radius: 0.34744215729855227
    true_radius: 0.09744215729855227
  - 
    center: 
      x: 0.15224468141883968
      y: -0.007001779591518641
      z: 0.0
    velocity: 
      x: 0.0
      y: 0.0
      z: 0.0
    radius: 0.3995166518968358
    true_radius: 0.14951665189683577
  - 
    center: 
      x: -0.4064603383572743
      y: 0.19126905981364117
      z: 0.0
    velocity: 
      x: 0.0
      y: 0.0
      z: 0.0
    radius: 0.305939416085661
    true_radius: 0.055939416085661
---
header: 
  seq: 1307
  stamp: 
    secs: 1690958046
    nsecs: 848947000
  frame_id: "laser_frame"
segments: 
  - 
    first_point: 
      x: -0.800125254057394
      y: -2.1212784197490837
      z: 0.0
    last_point: 
      x: 0.026496001446007375
      y: -2.1268908357502956
      z: 0.0
  - 
    first_point: 
      x: -2.9305586281038982
      y: 0.6743077624077564
      z: 0.0
    last_point: 
      x: -3.006767223843017
      y: -0.0032873758108971744
      z: 0.0
circles: 
  - 
    center: 
      x: -0.5337643826562521
      y: -0.19279780657546883
      z: 0.0
    velocity: 
      x: 0.0
      y: 0.0
      z: 0.0
    radius: 0.3170075220923321
    true_radius: 0.06700752209233207
  - 
    center: 
      x: 0.1383769481552388
      y: -0.9794840442416207
      z: 0.0
    velocity: 
      x: 0.0
      y: 0.0
      z: 0.0
    radius: 0.33983736453253943
    true_radius: 0.08983736453253943
  - 
    center: 
      x: 0.1453660393878966
      y: -0.00010458174523790401
      z: 0.0
    velocity: 
      x: 0.0
      y: 0.0
      z: 0.0
    radius: 0.3884889982777119
    true_radius: 0.13848899827771188
  - 
    center: 
      x: -0.3998978434781699
      y: 0.18846889519504753
      z: 0.0
    velocity: 
      x: 0.0
      y: 0.0
      z: 0.0
    radius: 0.2975615434997715
    true_radius: 0.047561543499771486
---
header: 
  seq: 1308
  stamp: 
    secs: 1690958046
    nsecs: 948547000
  frame_id: "laser_frame"
segments: 
  - 
    first_point: 
      x: -0.8007952806757982
      y: -2.1176484526360553
      z: 0.0
    last_point: 
      x: 0.05265342317146943
      y: -2.125791868543974
      z: 0.0
  - 
    first_point: 
      x: -2.9334837941445704
      y: 0.6791258301277635
      z: 0.0
    last_point: 
      x: -2.9973632696188597
      y: -0.001748087464290574
      z: 0.0
circles: 
  - 
    center: 
      x: -0.5349074713535952
      y: -0.19587464012553799
      z: 0.0
    velocity: 
      x: 0.0
      y: 0.0
      z: 0.0
    radius: 0.32152119047176775
    true_radius: 0.07152119047176775
  - 
    center: 
      x: 0.14400120886757295
      y: -0.9742422664415021
      z: 0.0
    velocity: 
      x: 0.0
      y: 0.0
      z: 0.0
    radius: 0.3323680728630492
    true_radius: 0.0823680728630492
  - 
    center: 
      x: 0.14438746786350645
      y: -0.001938822838866601
      z: 0.0
    velocity: 
      x: 0.0
      y: 0.0
      z: 0.0
    radius: 0.39283083474570324
    true_radius: 0.14283083474570324
  - 
    center: 
      x: -0.30078921951423593
      y: 1.422248818819315
      z: 0.0
    velocity: 
      x: 0.0
      y: 0.0
      z: 0.0
    radius: 0.3735230098435107
    true_radius: 0.12352300984351072
  - 
    center: 
      x: -0.3936579330275208
      y: 0.19332036473548703
      z: 0.0
    velocity: 
      x: 0.0
      y: 0.0
      z: 0.0
    radius: 0.29334816829986216
    true_radius: 0.043348168299862155
---
header: 
  seq: 1309
  stamp: 
    secs: 1690958047
    nsecs:  48347000
  frame_id: "laser_frame"
segments: 
  - 
    first_point: 
      x: -0.8206045244092289
      y: -2.113328055318169
      z: 0.0
    last_point: 
      x: 0.02652110024395803
      y: -2.128232817893009
      z: 0.0
circles: 
  - 
    center: 
      x: -3.272554683995171
      y: -0.3642862397256301
      z: 0.0
    velocity: 
      x: 0.0
      y: 0.0
      z: 0.0
    radius: 0.5862502488964405
    true_radius: 0.3362502488964405
  - 
    center: 
      x: -0.5308956740348527
      y: -0.19862029439868342
      z: 0.0
    velocity: 
      x: 0.0
      y: 0.0
      z: 0.0
    radius: 0.3159482020370783
    true_radius: 0.0659482020370783
  - 
    center: 
      x: 0.13733100731198078
      y: -0.9706262255796573
      z: 0.0
    velocity: 
      x: 0.0
      y: 0.0
      z: 0.0
    radius: 0.32504914914808125
    true_radius: 0.07504914914808125
  - 
    center: 
      x: 0.14005028724777352
      y: -0.011120730092570783
      z: 0.0
    velocity: 
      x: 0.0
      y: 0.0
      z: 0.0
    radius: 0.3834838697579091
    true_radius: 0.1334838697579091
  - 
    center: 
      x: -0.31270949397632597
      y: 1.4195875724229539
      z: 0.0
    velocity: 
      x: 0.0
      y: 0.0
      z: 0.0
    radius: 0.3708287492980854
    true_radius: 0.1208287492980854
  - 
    center: 
      x: -0.4246902498649937
      y: 0.19390698698294076
      z: 0.0
    velocity: 
      x: 0.0
      y: 0.0
      z: 0.0
    radius: 0.3169325272496687
    true_radius: 0.0669325272496687
  - 
    center: 
      x: -3.0589029875656117
      y: 0.49570133020138457
      z: 0.0
    velocity: 
      x: 0.0
      y: 0.0
      z: 0.0
    radius: 0.4542446280738027
    true_radius: 0.20424462807380273
---
header: 
  seq: 1310
  stamp: 
    secs: 1690958047
    nsecs: 147947000
  frame_id: "laser_frame"
segments: 
  - 
    first_point: 
      x: -0.801167572180985
      y: -2.121840808006393
      z: 0.0
    last_point: 
      x: 0.05302530368333081
      y: -2.1267023124493547
      z: 0.0
circles: 
  - 
    center: 
      x: -0.5340688022090327
      y: -0.1916373581380647
      z: 0.0
    velocity: 
      x: 0.0
      y: 0.0
      z: 0.0
    radius: 0.31787933969657817
    true_radius: 0.06787933969657817
  - 
    center: 
      x: 0.13861815482111423
      y: -0.9800290238103158
      z: 0.0
    velocity: 
      x: 0.0
      y: 0.0
      z: 0.0
    radius: 0.3398236965267676
    true_radius: 0.08982369652676758
  - 
    center: 
      x: 0.14204859137352224
      y: -0.010343460799255652
      z: 0.0
    velocity: 
      x: 0.0
      y: 0.0
      z: 0.0
    radius: 0.3850478942935138
    true_radius: 0.13504789429351383
  - 
    center: 
      x: -0.4003749097151117
      y: 0.18868273682250042
      z: 0.0
    velocity: 
      x: 0.0
      y: 0.0
      z: 0.0
    radius: 0.29782204778636345
    true_radius: 0.04782204778636345
---
header: 
  seq: 1311
  stamp: 
    secs: 1690958047
    nsecs: 247547000
  frame_id: "laser_frame"
segments: 
  - 
    first_point: 
      x: -0.8004560197536056
      y: -2.1186610055106767
      z: 0.0
    last_point: 
      x: 0.05277874314019077
      y: -2.1249809743383494
      z: 0.0
circles: 
  - 
    center: 
      x: -3.2729436469239785
      y: -0.42856935115834677
      z: 0.0
    velocity: 
      x: 0.0
      y: 0.0
      z: 0.0
    radius: 0.4792480711038153
    true_radius: 0.2292480711038153
  - 
    center: 
      x: -0.5332699588304335
      y: -0.19236890318384495
      z: 0.0
    velocity: 
      x: 0.0
      y: 0.0
      z: 0.0
    radius: 0.31681270813949614
    true_radius: 0.06681270813949614
  - 
    center: 
      x: 0.13770183275862174
      y: -0.9806024771330979
      z: 0.0
    velocity: 
      x: 0.0
      y: 0.0
      z: 0.0
    radius: 0.3404097954800416
    true_radius: 0.09040979548004158
  - 
    center: 
      x: 0.1409304175992671
      y: -0.01235620746792525
      z: 0.0
    velocity: 
      x: 0.0
      y: 0.0
      z: 0.0
    radius: 0.3881824049340069
    true_radius: 0.1381824049340069
  - 
    center: 
      x: -0.2960937352486198
      y: 1.4167046243905874
      z: 0.0
    velocity: 
      x: 0.0
      y: 0.0
      z: 0.0
    radius: 0.36094065378571216
    true_radius: 0.11094065378571216
  - 
    center: 
      x: -0.40686681625467036
      y: 0.19150332209909812
      z: 0.0
    velocity: 
      x: 0.0
      y: 0.0
      z: 0.0
    radius: 0.3060075673188503
    true_radius: 0.056007567318850315
---
header: 
  seq: 1312
  stamp: 
    secs: 1690958047
    nsecs: 347347000
  frame_id: "laser_frame"
segments: 
  - 
    first_point: 
      x: -2.942258121436842
      y: 0.6755103309745168
      z: 0.0
    last_point: 
      x: -3.132407336845834
      y: -0.6636654480610068
      z: 0.0
  - 
    first_point: 
      x: -0.8220175493006932
      y: -2.1122610546630365
      z: 0.0
    last_point: 
      x: 0.053057794041861554
      y: -2.1293343453609688
      z: 0.0
circles: 
  - 
    center: 
      x: -0.5327678685009638
      y: -0.198098747438786
      z: 0.0
    velocity: 
      x: 0.0
      y: 0.0
      z: 0.0
    radius: 0.3180747447637454
    true_radius: 0.06807474476374542
  - 
    center: 
      x: 0.14386779221782747
      y: -0.9747170629506272
      z: 0.0
    velocity: 
      x: 0.0
      y: 0.0
      z: 0.0
    radius: 0.3326723857316843
    true_radius: 0.08267238573168428
  - 
    center: 
      x: 0.14042987842859023
      y: -0.015371057719314414
      z: 0.0
    velocity: 
      x: 0.0
      y: 0.0
      z: 0.0
    radius: 0.382395001561439
    true_radius: 0.13239500156143902
  - 
    center: 
      x: -0.4221418642102597
      y: 0.1909121442880764
      z: 0.0
    velocity: 
      x: 0.0
      y: 0.0
      z: 0.0
    radius: 0.31597460113017256
    true_radius: 0.06597460113017256
---
header: 
  seq: 1313
  stamp: 
    secs: 1690958047
    nsecs: 446947000
  frame_id: "laser_frame"
segments: 
  - 
    first_point: 
      x: -0.8233940988863271
      y: -2.1123955301405535
      z: 0.0
    last_point: 
      x: 0.02646030844578948
      y: -2.1281473344141535
      z: 0.0
  - 
    first_point: 
      x: -2.9347213295280192
      y: 0.6352779758964421
      z: 0.0
    last_point: 
      x: -3.002826510286705
      y: -0.0033241465000200475
      z: 0.0
circles: 
  - 
    center: 
      x: -0.5326074049342561
      y: -0.19814938241520286
      z: 0.0
    velocity: 
      x: 0.0
      y: 0.0
      z: 0.0
    radius: 0.31808806587583405
    true_radius: 0.06808806587583405
  - 
    center: 
      x: 0.1434968154381889
      y: -0.9749663316994671
      z: 0.0
    velocity: 
      x: 0.0
      y: 0.0
      z: 0.0
    radius: 0.3328142947319664
    true_radius: 0.08281429473196639
  - 
    center: 
      x: 0.14421101682415405
      y: -0.0014507689466494247
      z: 0.0
    velocity: 
      x: 0.0
      y: 0.0
      z: 0.0
    radius: 0.38897134785118814
    true_radius: 0.13897134785118814
  - 
    center: 
      x: -0.40024481600915773
      y: 0.18861001031023497
      z: 0.0
    velocity: 
      x: 0.0
      y: 0.0
      z: 0.0
    radius: 0.2977692331018598
    true_radius: 0.04776923310185982
---
header: 
  seq: 1314
  stamp: 
    secs: 1690958047
    nsecs: 546547000
  frame_id: "laser_frame"
segments: 
  - 
    first_point: 
      x: -2.9517682248952695
      y: 0.6383029539300054
      z: 0.0
    last_point: 
      x: -3.0976204372737266
      y: -0.6615454355590372
      z: 0.0
  - 
    first_point: 
      x: -0.8014959246107075
      y: -2.1187581910833773
      z: 0.0
    last_point: 
      x: 0.05268820083420383
      y: -2.126394389515358
      z: 0.0
circles: 
  - 
    center: 
      x: -0.535782735595447
      y: -0.19698541240237313
      z: 0.0
    velocity: 
      x: 0.0
      y: 0.0
      z: 0.0
    radius: 0.32137691151115644
    true_radius: 0.07137691151115644
  - 
    center: 
      x: 0.13800024376853112
      y: -0.9706277922286771
      z: 0.0
    velocity: 
      x: 0.0
      y: 0.0
      z: 0.0
    radius: 0.3249834013386839
    true_radius: 0.07498340133868392
  - 
    center: 
      x: 0.14354490602577213
      y: -0.0022892758460994027
      z: 0.0
    velocity: 
      x: 0.0
      y: 0.0
      z: 0.0
    radius: 0.38839565661414654
    true_radius: 0.13839565661414654
  - 
    center: 
      x: -0.30798910070820223
      y: 1.4220631112337139
      z: 0.0
    velocity: 
      x: 0.0
      y: 0.0
      z: 0.0
    radius: 0.37323462610304936
    true_radius: 0.12323462610304936
  - 
    center: 
      x: -0.3921904585762789
      y: 0.18822642095293757
      z: 0.0
    velocity: 
      x: 0.0
      y: 0.0
      z: 0.0
    radius: 0.29021023669711504
    true_radius: 0.04021023669711504
---
header: 
  seq: 1315
  stamp: 
    secs: 1690958047
    nsecs: 646147000
  frame_id: "laser_frame"
segments: 
  - 
    first_point: 
      x: -2.929078383088636
      y: 0.6732687074952836
      z: 0.0
    last_point: 
      x: -3.124988296110104
      y: -0.7005381399560467
      z: 0.0
  - 
    first_point: 
      x: -0.7994040357224226
      y: -2.1175208423277736
      z: 0.0
    last_point: 
      x: 0.05238812511546788
      y: -2.1230784105042515
      z: 0.0
circles: 
  - 
    center: 
      x: -0.5313706036033582
      y: -0.19382677479795374
      z: 0.0
    velocity: 
      x: 0.0
      y: 0.0
      z: 0.0
    radius: 0.3140349837372806
    true_radius: 0.06403498373728062
  - 
    center: 
      x: 0.13835698327846882
      y: -0.9799117927992388
      z: 0.0
    velocity: 
      x: 0.0
      y: 0.0
      z: 0.0
    radius: 0.33983821579093215
    true_radius: 0.08983821579093215
  - 
    center: 
      x: 0.14419684640797278
      y: -0.010571762208183243
      z: 0.0
    velocity: 
      x: 0.0
      y: 0.0
      z: 0.0
    radius: 0.3845269724462953
    true_radius: 0.1345269724462953
  - 
    center: 
      x: -0.4204150359847829
      y: 0.19356075136983866
      z: 0.0
    velocity: 
      x: 0.0
      y: 0.0
      z: 0.0
    radius: 0.31763209591169306
    true_radius: 0.06763209591169306
---
header: 
  seq: 1316
  stamp: 
    secs: 1690958047
    nsecs: 745547000
  frame_id: "laser_frame"
segments: 
  - 
    first_point: 
      x: -2.8963487237791976
      y: 0.6242944853712324
      z: 0.0
    last_point: 
      x: -3.156572154726723
      y: -0.7069552734626566
      z: 0.0
  - 
    first_point: 
      x: -0.8001150832562794
      y: -2.118881796848146
      z: 0.0
    last_point: 
      x: 0.052825203972802895
      y: -2.1263479403414025
      z: 0.0
circles: 
  - 
    center: 
      x: -0.5353795116896221
      y: -0.19673429131042713
      z: 0.0
    velocity: 
      x: 0.0
      y: 0.0
      z: 0.0
    radius: 0.32096886171006855
    true_radius: 0.07096886171006855
  - 
    center: 
      x: 0.14403257795280958
      y: -0.983569779422133
      z: 0.0
    velocity: 
      x: 0.0
      y: 0.0
      z: 0.0
    radius: 0.3471800256702489
    true_radius: 0.09718002567024892
  - 
    center: 
      x: 0.14709162770530348
      y: -0.00705409327871563
      z: 0.0
    velocity: 
      x: 0.0
      y: 0.0
      z: 0.0
    radius: 0.39502121906892806
    true_radius: 0.14502121906892806
  - 
    center: 
      x: -0.39975685444983666
      y: 0.18508051370384868
      z: 0.0
    velocity: 
      x: 0.0
      y: 0.0
      z: 0.0
    radius: 0.2955779548469235
    true_radius: 0.04557795484692351
---
header: 
  seq: 1317
  stamp: 
    secs: 1690958047
    nsecs: 844947000
  frame_id: "laser_frame"
segments: 
  - 
    first_point: 
      x: -0.7709230589117714
      y: -2.1196277580578005
      z: 0.0
    last_point: 
      x: 0.052789803344097795
      y: -2.124624910172771
      z: 0.0
circles: 
  - 
    center: 
      x: -0.5351970706161668
      y: -0.19692879561453672
      z: 0.0
    velocity: 
      x: 0.0
      y: 0.0
      z: 0.0
    radius: 0.3209467515071263
    true_radius: 0.07094675150712632
  - 
    center: 
      x: 0.138365757672089
      y: -0.9780559424800671
      z: 0.0
    velocity: 
      x: 0.0
      y: 0.0
      z: 0.0
    radius: 0.3391553342163465
    true_radius: 0.08915533421634653
  - 
    center: 
      x: 0.14442849293441556
      y: -0.0004399584181184093
      z: 0.0
    velocity: 
      x: 0.0
      y: 0.0
      z: 0.0
    radius: 0.3898203867821156
    true_radius: 0.1398203867821156
  - 
    center: 
      x: -0.4063064694528852
      y: 0.19129287419317687
      z: 0.0
    velocity: 
      x: 0.0
      y: 0.0
      z: 0.0
    radius: 0.3057814330727132
    true_radius: 0.055781433072713216
---
header: 
