header: 
  seq: 2742
  stamp: 
    secs: 1690956071
    nsecs:  67475000
  frame_id: "laser_frame"
segments: 
  - 
    first_point: 
      x: -5.965241274782483
      y: -1.7652942614803355
      z: 0.0
    last_point: 
      x: -6.027839625066599
      y: -2.5605367201451226
      z: 0.0
  - 
    first_point: 
      x: -1.4987052809937256
      y: -2.8888444007067067
      z: 0.0
    last_point: 
      x: -0.6755944231845016
      y: -2.963093136985927
      z: 0.0
circles: 
  - 
    center: 
      x: -0.19817126799219642
      y: -3.099135379395343
      z: 0.0
    velocity: 
      x: 0.0
      y: 0.0
      z: 0.0
    radius: 0.46597977417311887
    true_radius: 0.21597977417311887
  - 
    center: 
      x: 0.15059779485193955
      y: 0.1468263662583955
      z: 0.0
    velocity: 
      x: 0.0
      y: 0.0
      z: 0.0
    radius: 0.42374778052386364
    true_radius: 0.17374778052386364
  - 
    center: 
      x: -0.028687396380310995
      y: 0.5424022346713099
      z: 0.0
    velocity: 
      x: 0.0
      y: 0.0
      z: 0.0
    radius: 0.3325231717487595
    true_radius: 0.0825231717487595
  - 
    center: 
      x: -0.9609166443916876
      y: 0.22267734319668242
      z: 0.0
    velocity: 
      x: 0.0
      y: 0.0
      z: 0.0
    radius: 0.4918476421829149
    true_radius: 0.24184764218291488
---
header: 
  seq: 2743
  stamp: 
    secs: 1690956071
    nsecs: 166875000
  frame_id: "laser_frame"
segments: 
  - 
    first_point: 
      x: -1.4855174539676916
      y: -2.898806811631879
      z: 0.0
    last_point: 
      x: -0.6744345515703288
      y: -2.9546188173357995
      z: 0.0
circles: 
  - 
    center: 
      x: -0.1914320023209205
      y: -3.1005494610693214
      z: 0.0
    velocity: 
      x: 0.0
      y: 0.0
      z: 0.0
    radius: 0.46626934021206823
    true_radius: 0.21626934021206823
  - 
    center: 
      x: 0.15181885983096385
      y: 0.14321663334983564
      z: 0.0
    velocity: 
      x: 0.0
      y: 0.0
      z: 0.0
    radius: 0.42630575477996924
    true_radius: 0.17630575477996924
  - 
    center: 
      x: -0.020834651789643194
      y: 0.5421628475783378
      z: 0.0
    velocity: 
      x: 0.0
      y: 0.0
      z: 0.0
    radius: 0.3252638149886026
    true_radius: 0.07526381498860257
  - 
    center: 
      x: -0.9615411491632312
      y: 0.2222889965769658
      z: 0.0
    velocity: 
      x: 0.0
      y: 0.0
      z: 0.0
    radius: 0.4921701328817657
    true_radius: 0.2421701328817657
---
header: 
  seq: 2744
  stamp: 
    secs: 1690956071
    nsecs: 266275000
  frame_id: "laser_frame"
segments: 
  - 
    first_point: 
      x: -1.529463395613469
      y: -2.895105785388526
      z: 0.0
    last_point: 
      x: -0.6733198122391876
      y: -2.952067938289205
      z: 0.0
circles: 
  - 
    center: 
      x: -0.15539483008308538
      y: -3.104051334204031
      z: 0.0
    velocity: 
      x: 0.0
      y: 0.0
      z: 0.0
    radius: 0.4661800768545624
    true_radius: 0.21618007685456242
  - 
    center: 
      x: 0.1341607142612724
      y: 0.1607835905904776
      z: 0.0
    velocity: 
      x: 0.0
      y: 0.0
      z: 0.0
    radius: 0.41532057824609736
    true_radius: 0.16532057824609736
  - 
    center: 
      x: -0.9597071852014042
      y: 0.2233738026570916
      z: 0.0
    velocity: 
      x: 0.0
      y: 0.0
      z: 0.0
    radius: 0.4843151360355967
    true_radius: 0.23431513603559673
---
header: 
  seq: 2745
  stamp: 
    secs: 1690956071
    nsecs: 365875000
  frame_id: "laser_frame"
segments: 
  - 
    first_point: 
      x: -5.952178316402946
      y: -1.7572831148595527
      z: 0.0
    last_point: 
      x: -6.056522095371257
      y: -2.5506780533040425
      z: 0.0
  - 
    first_point: 
      x: -1.4965923267378136
      y: -2.8885589227808808
      z: 0.0
    last_point: 
      x: -0.6370394325395933
      y: -2.964209472908562
      z: 0.0
circles: 
  - 
    center: 
      x: -0.17846685313845273
      y: -3.1089795280741206
      z: 0.0
    velocity: 
      x: 0.0
      y: 0.0
      z: 0.0
    radius: 0.4875163906166745
    true_radius: 0.2375163906166745
  - 
    center: 
      x: 0.1421717982586248
      y: 0.15163249236409543
      z: 0.0
    velocity: 
      x: 0.0
      y: 0.0
      z: 0.0
    radius: 0.42311040696690877
    true_radius: 0.17311040696690877
  - 
    center: 
      x: -0.9604923452677488
      y: 0.2147098324780245
      z: 0.0
    velocity: 
      x: 0.0
      y: 0.0
      z: 0.0
    radius: 0.48467628224733994
    true_radius: 0.23467628224733994
---
header: 
  seq: 2746
  stamp: 
    secs: 1690956071
    nsecs: 465275000
  frame_id: "laser_frame"
segments: 
  - 
    first_point: 
      x: -5.950752501064589
      y: -1.7492970458116426
      z: 0.0
    last_point: 
      x: -5.962336115097971
      y: -2.637752803557116
      z: 0.0
  - 
    first_point: 
      x: -1.5299974964078937
      y: -2.8914454670931966
      z: 0.0
    last_point: 
      x: -0.6751792043050733
      y: -2.9566495078900643
      z: 0.0
circles: 
  - 
    center: 
      x: -0.18911694141468743
      y: -3.1055174431951156
      z: 0.0
    velocity: 
      x: 0.0
      y: 0.0
      z: 0.0
    radius: 0.4891484039162247
    true_radius: 0.23914840391622472
  - 
    center: 
      x: 0.1452996529615191
      y: 0.15068128073437792
      z: 0.0
    velocity: 
      x: 0.0
      y: 0.0
      z: 0.0
    radius: 0.4237957441429645
    true_radius: 0.1737957441429645
  - 
    center: 
      x: -0.028497343156249286
      y: 0.5514785544358477
      z: 0.0
    velocity: 
      x: 0.0
      y: 0.0
      z: 0.0
    radius: 0.344015734782443
    true_radius: 0.09401573478244302
  - 
    center: 
      x: -0.9618608430523181
      y: 0.22159163974081392
      z: 0.0
    velocity: 
      x: 0.0
      y: 0.0
      z: 0.0
    radius: 0.49206248627885946
    true_radius: 0.24206248627885946
---
header: 
  seq: 2747
  stamp: 
    secs: 1690956071
    nsecs: 564875000
  frame_id: "laser_frame"
segments: 
  - 
    first_point: 
      x: -5.954486896616312
      y: -1.7571589642910501
      z: 0.0
    last_point: 
      x: -6.011277304969196
      y: -2.5391883626358154
      z: 0.0
  - 
    first_point: 
      x: -1.4829963694716328
      y: -2.903408642325252
      z: 0.0
    last_point: 
      x: -0.636264726530112
      y: -2.956619292766832
      z: 0.0
circles: 
  - 
    center: 
      x: -0.20151464370069058
      y: -3.096992368231823
      z: 0.0
    velocity: 
      x: 0.0
      y: 0.0
      z: 0.0
    radius: 0.4663688831956131
    true_radius: 0.2163688831956131
  - 
    center: 
      x: 0.12216655457505668
      y: 0.16662360484615119
      z: 0.0
    velocity: 
      x: 0.0
      y: 0.0
      z: 0.0
    radius: 0.41376504696039007
    true_radius: 0.16376504696039007
  - 
    center: 
      x: -0.024226113378308566
      y: 0.543602766107711
      z: 0.0
    velocity: 
      x: 0.0
      y: 0.0
      z: 0.0
    radius: 0.3289832365561539
    true_radius: 0.07898323655615391
  - 
    center: 
      x: -0.9585129712676635
      y: 0.2165854368962688
      z: 0.0
    velocity: 
      x: 0.0
      y: 0.0
      z: 0.0
    radius: 0.4848396519436774
    true_radius: 0.2348396519436774
---
header: 
  seq: 2748
  stamp: 
    secs: 1690956071
    nsecs: 664275000
  frame_id: "laser_frame"
segments: 
  - 
    first_point: 
      x: -6.038669532790549
      y: -2.027767388094232
      z: 0.0
    last_point: 
      x: -5.823153280791038
      y: -2.692683039410779
      z: 0.0
  - 
    first_point: 
      x: -1.5321335971883392
      y: -2.8926750051801537
      z: 0.0
    last_point: 
      x: -0.6746249508130723
      y: -2.9529541984324426
      z: 0.0
circles: 
  - 
    center: 
      x: -0.15346151331967336
      y: -3.104371132075526
      z: 0.0
    velocity: 
      x: 0.0
      y: 0.0
      z: 0.0
    radius: 0.4666446976083124
    true_radius: 0.2166446976083124
  - 
    center: 
      x: 0.14431660080053524
      y: 0.1343056559210311
      z: 0.0
    velocity: 
      x: 0.0
      y: 0.0
      z: 0.0
    radius: 0.41599169389212187
    true_radius: 0.16599169389212187
  - 
    center: 
      x: -0.02843766755000153
      y: 0.5513503311242367
      z: 0.0
    velocity: 
      x: 0.0
      y: 0.0
      z: 0.0
    radius: 0.34543450872011316
    true_radius: 0.09543450872011316
  - 
    center: 
      x: -0.9617777246005281
      y: 0.2217793509906677
      z: 0.0
    velocity: 
      x: 0.0
      y: 0.0
      z: 0.0
    radius: 0.4922576938493116
    true_radius: 0.24225769384931162
---
header: 
  seq: 2749
  stamp: 
    secs: 1690956071
    nsecs: 763875000
  frame_id: "laser_frame"
segments: 
  - 
    first_point: 
      x: -1.509809484586689
      y: -2.8909409196053173
      z: 0.0
    last_point: 
      x: -0.6731383550911185
      y: -2.951429305047792
      z: 0.0
circles: 
  - 
    center: 
      x: -0.19643526637727818
      y: -3.1011510124310746
      z: 0.0
    velocity: 
      x: 0.0
      y: 0.0
      z: 0.0
    radius: 0.4662052763531367
    true_radius: 0.2162052763531367
  - 
    center: 
      x: 0.14102266470354657
      y: 0.15532573628677723
      z: 0.0
    velocity: 
      x: 0.0
      y: 0.0
      z: 0.0
    radius: 0.4227989732184082
    true_radius: 0.1727989732184082
  - 
    center: 
      x: -0.9601857834295977
      y: 0.21492516607751752
      z: 0.0
    velocity: 
      x: 0.0
      y: 0.0
      z: 0.0
    radius: 0.4844700954094542
    true_radius: 0.23447009540945418
---
header: 
  seq: 2750
  stamp: 
    secs: 1690956071
    nsecs: 863275000
  frame_id: "laser_frame"
segments: 
  - 
    first_point: 
      x: -5.919756957911393
      y: -1.6501660963929157
      z: 0.0
    last_point: 
      x: -6.055158478751582
      y: -2.456939153310744
      z: 0.0
  - 
    first_point: 
      x: -1.5290244950752516
      y: -2.8945079084339373
      z: 0.0
    last_point: 
      x: -0.7122446916471386
      y: -2.953363168364072
      z: 0.0
  - 
    first_point: 
      x: -0.3372151957678275
      y: -2.989893041999086
      z: 0.0
    last_point: 
      x: 0.03779820449237227
      y: -3.007789065278837
      z: 0.0
circles: 
  - 
    center: 
      x: 0.1389596023912165
      y: 0.16204789581554457
      z: 0.0
    velocity: 
      x: 0.0
      y: 0.0
      z: 0.0
    radius: 0.42270387931191955
    true_radius: 0.17270387931191955
  - 
    center: 
      x: -0.030037646820073087
      y: 0.5514548911921519
      z: 0.0
    velocity: 
      x: 0.0
      y: 0.0
      z: 0.0
    radius: 0.3457344357677165
    true_radius: 0.09573443576771651
  - 
    center: 
      x: -0.9618946248496607
      y: 0.2215584941609808
      z: 0.0
    velocity: 
      x: 0.0
      y: 0.0
      z: 0.0
    radius: 0.49198279973405856
    true_radius: 0.24198279973405856
---
header: 
  seq: 2751
  stamp: 
    secs: 1690956071
    nsecs: 962875000
  frame_id: "laser_frame"
segments: 
  - 
    first_point: 
      x: -5.935161773572346
      y: -1.6570323264061304
      z: 0.0
    last_point: 
      x: -6.037060988760282
      y: -2.4503270547678104
      z: 0.0
  - 
    first_point: 
      x: -1.5293986203295515
      y: -2.8940486863141084
      z: 0.0
    last_point: 
      x: -0.6392511937580837
      y: -2.967858767271185
      z: 0.0
circles: 
  - 
    center: 
      x: -0.21777448259500468
      y: -3.0835528042747122
      z: 0.0
    velocity: 
      x: 0.0
      y: 0.0
      z: 0.0
    radius: 0.47044021116807677
    true_radius: 0.22044021116807677
  - 
    center: 
      x: 0.13771489461314573
      y: 0.1532805591864093
      z: 0.0
    velocity: 
      x: 0.0
      y: 0.0
      z: 0.0
    radius: 0.41574823370708014
    true_radius: 0.16574823370708014
  - 
    center: 
      x: -0.02014128236018272
      y: 0.546349147423289
      z: 0.0
    velocity: 
      x: 0.0
      y: 0.0
      z: 0.0
    radius: 0.33051870714691073
    true_radius: 0.08051870714691073
  - 
    center: 
      x: -0.959142063817341
      y: 0.21642014901769302
      z: 0.0
    velocity: 
      x: 0.0
      y: 0.0
      z: 0.0
    radius: 0.4851168947003175
    true_radius: 0.2351168947003175
---
header: 
  seq: 2752
  stamp: 
    secs: 1690956072
    nsecs:  62275000
  frame_id: "laser_frame"
segments: 
  - 
    first_point: 
      x: -1.532295361393014
      y: -2.8952607519851146
      z: 0.0
    last_point: 
      x: -0.6363908081073798
      y: -2.9621032276521517
      z: 0.0
  - 
    first_point: 
      x: -0.336484472614966
      y: -2.9827479220624182
      z: 0.0
    last_point: 
      x: 0.0380977797423133
      y: -3.0100910853570335
      z: 0.0
circles: 
  - 
    center: 
      x: 0.14854621326064404
      y: 0.14726852503061538
      z: 0.0
    velocity: 
      x: 0.0
      y: 0.0
      z: 0.0
    radius: 0.424084208929294
    true_radius: 0.174084208929294
  - 
    center: 
      x: -0.025580024128774286
      y: 0.548699255524256
      z: 0.0
    velocity: 
      x: 0.0
      y: 0.0
      z: 0.0
    radius: 0.3360185561996998
    true_radius: 0.08601855619969978
  - 
    center: 
      x: -0.9537235663770725
      y: 0.21026254343674358
      z: 0.0
    velocity: 
      x: 0.0
      y: 0.0
      z: 0.0
    radius: 0.46978769836174084
    true_radius: 0.21978769836174084
---
header: 
  seq: 2753
  stamp: 
    secs: 1690956072
    nsecs: 161675000
  frame_id: "laser_frame"
segments: 
  - 
    first_point: 
      x: -5.943303772456861
      y: -1.669046128787924
      z: 0.0
    last_point: 
      x: -6.039456706542369
      y: -2.4500953037416457
      z: 0.0
  - 
    first_point: 
      x: -1.530964493527894
      y: -2.8937362476914834
      z: 0.0
    last_point: 
      x: -0.6374820086322888
      y: -2.963758495219157
      z: 0.0
circles: 
  - 
    center: 
      x: -0.1871210711683705
      y: -3.1082118361171704
      z: 0.0
    velocity: 
      x: 0.0
      y: 0.0
      z: 0.0
    radius: 0.48878890623963944
    true_radius: 0.23878890623963944
  - 
    center: 
      x: 0.1382789009899721
      y: 0.16149628543307004
      z: 0.0
    velocity: 
      x: 0.0
      y: 0.0
      z: 0.0
    radius: 0.42277739958364624
    true_radius: 0.17277739958364624
  - 
    center: 
      x: -0.02672836069973686
      y: 0.5473032315114739
      z: 0.0
    velocity: 
      x: 0.0
      y: 0.0
      z: 0.0
    radius: 0.33538185479280314
    true_radius: 0.08538185479280314
  - 
    center: 
      x: -0.9627201303392809
      y: 0.22063609712531346
      z: 0.0
    velocity: 
      x: 0.0
      y: 0.0
      z: 0.0
    radius: 0.4909792548385797
    true_radius: 0.24097925483857968
---
header: 
  seq: 2754
  stamp: 
    secs: 1690956072
    nsecs: 261075000
  frame_id: "laser_frame"
segments: 
  - 
    first_point: 
      x: -1.4824904822152842
      y: -2.9006462525553443
      z: 0.0
    last_point: 
      x: -0.6753516433463753
      y: -2.956680357561052
      z: 0.0
circles: 
  - 
    center: 
      x: -0.21235079328440637
      y: -3.0904202326214896
      z: 0.0
    velocity: 
      x: 0.0
      y: 0.0
      z: 0.0
    radius: 0.44465776063393797
    true_radius: 0.19465776063393797
  - 
    center: 
      x: 0.1466570108724502
      y: 0.1530331108502328
      z: 0.0
    velocity: 
      x: 0.0
      y: 0.0
      z: 0.0
    radius: 0.42540312864024443
    true_radius: 0.17540312864024443
  - 
    center: 
      x: -0.02337215036942901
      y: 0.5468434082385502
      z: 0.0
    velocity: 
      x: 0.0
      y: 0.0
      z: 0.0
    radius: 0.33640814451276385
    true_radius: 0.08640814451276385
  - 
    center: 
      x: -0.9610095493294856
      y: 0.21417195645918422
      z: 0.0
    velocity: 
      x: 0.0
      y: 0.0
      z: 0.0
    radius: 0.4847333685539864
    true_radius: 0.2347333685539864
---
header: 
  seq: 2755
  stamp: 
    secs: 1690956072
    nsecs: 360275000
  frame_id: "laser_frame"
segments: 
  - 
    first_point: 
      x: -5.991269367613181
      y: -1.839413425121282
      z: 0.0
    last_point: 
      x: -5.952834873784237
      y: -2.6310504238580745
      z: 0.0
  - 
    first_point: 
      x: -1.4906160454422523
      y: -2.8876175941273194
      z: 0.0
    last_point: 
      x: -0.6366571043744716
      y: -2.9663189456396206
      z: 0.0
circles: 
  - 
    center: 
      x: -0.1952784129072077
      y: -3.099907659089335
      z: 0.0
    velocity: 
      x: 0.0
      y: 0.0
      z: 0.0
    radius: 0.4658484630868564
    true_radius: 0.2158484630868564
  - 
    center: 
      x: 0.1632698992943381
      y: 0.12733544820199572
      z: 0.0
    velocity: 
      x: 0.0
      y: 0.0
      z: 0.0
    radius: 0.42452741166829766
    true_radius: 0.17452741166829766
  - 
    center: 
      x: -0.028483396103268617
      y: 0.5532525472769868
      z: 0.0
    velocity: 
      x: 0.0
      y: 0.0
      z: 0.0
    radius: 0.3465010301464151
    true_radius: 0.09650103014641509
  - 
    center: 
      x: -0.9618437419015917
      y: 0.22168150031111397
      z: 0.0
    velocity: 
      x: 0.0
      y: 0.0
      z: 0.0
    radius: 0.4919116884746818
    true_radius: 0.2419116884746818
---
header: 
  seq: 2756
  stamp: 
    secs: 1690956072
    nsecs: 459675000
  frame_id: "laser_frame"
segments: 
  - 
    first_point: 
      x: -1.5233133393179652
      y: -2.8935692199352863
      z: 0.0
    last_point: 
      x: -0.6753776230731762
      y: -2.9550840700181533
      z: 0.0
  - 
    first_point: 
      x: -0.3369617749414135
      y: -2.98990973344226
      z: 0.0
    last_point: 
      x: 0.03727068593553571
      y: -3.006497306710835
      z: 0.0
circles: 
  - 
    center: 
      x: 0.12928755639671674
      y: 0.15916584109451976
      z: 0.0
    velocity: 
      x: 0.0
      y: 0.0
      z: 0.0
    radius: 0.4140986335857952
    true_radius: 0.16409863358579518
  - 
    center: 
      x: -0.026324113744018215
      y: 0.5462663273293422
      z: 0.0
    velocity: 
      x: 0.0
      y: 0.0
      z: 0.0
    radius: 0.33492537462965144
    true_radius: 0.08492537462965144
  - 
    center: 
      x: -0.9592060816378422
      y: 0.21408730555481054
      z: 0.0
    velocity: 
      x: 0.0
      y: 0.0
      z: 0.0
    radius: 0.48421584743057555
    true_radius: 0.23421584743057555
---
header: 
  seq: 2757
  stamp: 
    secs: 1690956072
    nsecs: 558875000
  frame_id: "laser_frame"
segments: 
  - 
    first_point: 
      x: -1.4879995107198911
      y: -2.906616540108226
      z: 0.0
    last_point: 
      x: -0.6363146304906588
      y: -2.9598050134925247
      z: 0.0
circles: 
  - 
    center: 
      x: -0.20774496059530076
      y: -3.0947888094401343
      z: 0.0
    velocity: 
      x: 0.0
      y: 0.0
      z: 0.0
    radius: 0.4675389350427984
    true_radius: 0.21753893504279842
  - 
    center: 
      x: 0.1342148696959986
      y: 0.15573457797911
      z: 0.0
    velocity: 
      x: 0.0
      y: 0.0
      z: 0.0
    radius: 0.41502459679790815
    true_radius: 0.16502459679790815
  - 
    center: 
      x: -0.02089892092400912
      y: 0.5421866343452735
      z: 0.0
    velocity: 
      x: 0.0
      y: 0.0
      z: 0.0
    radius: 0.3252601831948285
    true_radius: 0.07526018319482852
  - 
    center: 
      x: -0.9616473931920052
      y: 0.22174620053545813
      z: 0.0
    velocity: 
      x: 0.0
      y: 0.0
      z: 0.0
    radius: 0.49176188982994506
    true_radius: 0.24176188982994506
---
header: 
  seq: 2758
  stamp: 
    secs: 1690956072
    nsecs: 658275000
  frame_id: "laser_frame"
segments: 
  - 
    first_point: 
      x: -5.989937249944649
      y: -1.7538755061797622
      z: 0.0
    last_point: 
      x: -5.9072806718283815
      y: -2.632330359127677
      z: 0.0
  - 
    first_point: 
      x: -1.5041368619203765
      y: -2.89165742286375
      z: 0.0
    last_point: 
      x: -0.6753943112292037
      y: -2.9626531347973843
      z: 0.0
circles: 
  - 
    center: 
      x: -0.19297371238408426
      y: -3.1039020462648534
      z: 0.0
    velocity: 
      x: 0.0
      y: 0.0
      z: 0.0
    radius: 0.46646310264481305
    true_radius: 0.21646310264481305
  - 
    center: 
      x: 0.14870910785217686
      y: 0.14884361444224148
      z: 0.0
    velocity: 
      x: 0.0
      y: 0.0
      z: 0.0
    radius: 0.4257412835117518
    true_radius: 0.17574128351175178
  - 
    center: 
      x: -0.9538427968387837
      y: 0.2103060999251791
      z: 0.0
    velocity: 
      x: 0.0
      y: 0.0
      z: 0.0
    radius: 0.4700858848156251
    true_radius: 0.22008588481562508
---
header: 
  seq: 2759
  stamp: 
    secs: 1690956072
    nsecs: 757475000
  frame_id: "laser_frame"
segments: 
  - 
    first_point: 
      x: -1.522469364205866
      y: -2.8927180236498775
      z: 0.0
    last_point: 
      x: -0.7139954479818114
      y: -2.952750844140719
      z: 0.0
  - 
    first_point: 
      x: -0.3359448657690216
      y: -2.980869065017861
      z: 0.0
    last_point: 
      x: 0.037785549492882584
      y: -3.01362714896329
      z: 0.0
circles: 
  - 
    center: 
      x: 0.13498792796870157
      y: 0.15663884720742166
      z: 0.0
    velocity: 
      x: 0.0
      y: 0.0
      z: 0.0
    radius: 0.422348955102533
    true_radius: 0.172348955102533
  - 
    center: 
      x: -0.025763290709384174
      y: 0.5424954601871042
      z: 0.0
    velocity: 
      x: 0.0
      y: 0.0
      z: 0.0
    radius: 0.3326362958381045
    true_radius: 0.0826362958381045
  - 
    center: 
      x: -0.9625559299062371
      y: 0.22299349457165124
      z: 0.0
    velocity: 
      x: 0.0
      y: 0.0
      z: 0.0
    radius: 0.4923884229728329
    true_radius: 0.24238842297283292
---
header: 
  seq: 2760
  stamp: 
    secs: 1690956072
    nsecs: 856675000
  frame_id: "laser_frame"
segments: 
  - 
    first_point: 
      x: -5.932137709914927
      y: -1.7554453363328535
      z: 0.0
    last_point: 
      x: -6.016542965882829
      y: -2.5438596008819783
      z: 0.0
  - 
    first_point: 
      x: -1.48645676780927
      y: -2.9080427834869274
      z: 0.0
    last_point: 
      x: -0.6363831983558083
      y: -2.958572333681765
      z: 0.0
circles: 
  - 
    center: 
      x: -0.15609324925914683
      y: -3.104128777178318
      z: 0.0
    velocity: 
      x: 0.0
      y: 0.0
      z: 0.0
    radius: 0.4665960265638376
    true_radius: 0.21659602656383758
  - 
    center: 
      x: 0.13616184241177975
      y: 0.15676368783788247
      z: 0.0
    velocity: 
      x: 0.0
      y: 0.0
      z: 0.0
    radius: 0.4160980489142574
    true_radius: 0.1660980489142574
  - 
    center: 
      x: -0.024216089136799145
      y: 0.5539571304215267
      z: 0.0
    velocity: 
      x: 0.0
      y: 0.0
      z: 0.0
    radius: 0.34051045874393293
    true_radius: 0.09051045874393293
  - 
    center: 
      x: -0.961240836356132
      y: 0.22270154582731916
      z: 0.0
    velocity: 
      x: 0.0
      y: 0.0
      z: 0.0
    radius: 0.491744539562381
    true_radius: 0.241744539562381
---
header: 
  seq: 2761
  stamp: 
    secs: 1690956072
    nsecs: 956075000
  frame_id: "laser_frame"
segments: 
  - 
    first_point: 
      x: -1.5225593747074881
      y: -2.8939169113809258
      z: 0.0
    last_point: 
      x: -0.6749031482569535
      y: -2.9569141406102606
      z: 0.0
circles: 
  - 
    center: 
      x: -0.17287383880447435
      y: -3.1156825929444483
      z: 0.0
    velocity: 
      x: 0.0
      y: 0.0
      z: 0.0
    radius: 0.4884080140555518
    true_radius: 0.2384080140555518
  - 
    center: 
      x: 0.1357512721528561
      y: 0.16122567444708796
      z: 0.0
    velocity: 
      x: 0.0
      y: 0.0
      z: 0.0
    radius: 0.42300562753379634
    true_radius: 0.17300562753379634
  - 
    center: 
      x: -0.023236140918309344
      y: 0.5193342559014283
      z: 0.0
    velocity: 
      x: 0.0
      y: 0.0
      z: 0.0
    radius: 0.3098030385896738
    true_radius: 0.059803038589673785
  - 
    center: 
      x: -0.9563415212741195
      y: 0.21874701666311275
      z: 0.0
    velocity: 
      x: 0.0
      y: 0.0
      z: 0.0
    radius: 0.4781522642135839
    true_radius: 0.22815226421358392
---
header: 
  seq: 2762
  stamp: 
    secs: 1690956073
    nsecs:  55275000
  frame_id: "laser_frame"
segments: 
  - 
    first_point: 
      x: -5.972349380801123
      y: -1.7518911466641527
      z: 0.0
    last_point: 
      x: -5.9544110126785075
      y: -2.6374332125797153
      z: 0.0
  - 
    first_point: 
      x: -1.4828171699541446
      y: -2.9068823219773394
      z: 0.0
    last_point: 
      x: -0.6747983497269546
      y: -2.957799633377002
      z: 0.0
circles: 
  - 
    center: 
      x: -0.18413772420119073
      y: -3.111262447869694
      z: 0.0
    velocity: 
      x: 0.0
      y: 0.0
      z: 0.0
    radius: 0.48813120872439086
    true_radius: 0.23813120872439086
  - 
    center: 
      x: 0.12923065497942224
      y: 0.17293864948985027
      z: 0.0
    velocity: 
      x: 0.0
      y: 0.0
      z: 0.0
    radius: 0.42089250755762264
    true_radius: 0.17089250755762264
  - 
    center: 
      x: -0.028682157435536114
      y: 0.5412255439378547
      z: 0.0
    velocity: 
      x: 0.0
      y: 0.0
      z: 0.0
    radius: 0.33246442110854757
    true_radius: 0.08246442110854757
  - 
    center: 
      x: -0.9619485741762563
      y: 0.22198705216817954
      z: 0.0
    velocity: 
      x: 0.0
      y: 0.0
      z: 0.0
    radius: 0.4919547650071928
    true_radius: 0.24195476500719282
---
header: 
  seq: 2763
  stamp: 
    secs: 1690956073
    nsecs: 154675000
  frame_id: "laser_frame"
segments: 
  - 
    first_point: 
      x: -5.941075809715941
      y: -1.6689528713813035
      z: 0.0
    last_point: 
      x: -6.034752989824302
      y: -2.4511940739636033
      z: 0.0
  - 
    first_point: 
      x: -1.5317598830089154
      y: -2.892847083298459
      z: 0.0
    last_point: 
      x: -0.6727483639918331
      y: -2.950546559204841
      z: 0.0
circles: 
  - 
    center: 
      x: -0.1550536586862921
      y: -3.1051453478086515
      z: 0.0
    velocity: 
      x: 0.0
      y: 0.0
      z: 0.0
    radius: 0.4667966405384511
    true_radius: 0.2167966405384511
  - 
    center: 
      x: 0.1285661240649558
      y: 0.1621331030830076
      z: 0.0
    velocity: 
      x: 0.0
      y: 0.0
      z: 0.0
    radius: 0.41496709772256474
    true_radius: 0.16496709772256474
  - 
    center: 
      x: -0.024326651339036717
      y: 0.5455367158270741
      z: 0.0
    velocity: 
      x: 0.0
      y: 0.0
      z: 0.0
    radius: 0.32808176587565363
    true_radius: 0.07808176587565363
  - 
    center: 
      x: -0.9604069988802914
      y: 0.2148403952520715
      z: 0.0
    velocity: 
      x: 0.0
      y: 0.0
      z: 0.0
    radius: 0.4846110284937216
    true_radius: 0.23461102849372162
---
header: 
  seq: 2764
  stamp: 
    secs: 1690956073
    nsecs: 254075000
  frame_id: "laser_frame"
segments: 
  - 
    first_point: 
      x: -5.933286807238181
      y: -1.7578841678729527
      z: 0.0
    last_point: 
      x: -6.089646217004508
      y: -2.590817747550687
      z: 0.0
  - 
    first_point: 
      x: -1.5214682935628374
      y: -2.8966886365087183
      z: 0.0
    last_point: 
      x: -0.6739052077062261
      y: -2.9558893757778586
      z: 0.0
circles: 
  - 
    center: 
      x: -0.17603623921677847
      y: -3.11445669683168
      z: 0.0
    velocity: 
      x: 0.0
      y: 0.0
      z: 0.0
    radius: 0.48792282641187357
    true_radius: 0.23792282641187357
  - 
    center: 
      x: 0.1322154254744917
      y: 0.16198030623633364
      z: 0.0
    velocity: 
      x: 0.0
      y: 0.0
      z: 0.0
    radius: 0.41724403387616543
    true_radius: 0.16724403387616543
  - 
    center: 
      x: -0.9608302974799829
      y: 0.21462448461103317
      z: 0.0
    velocity: 
      x: 0.0
      y: 0.0
      z: 0.0
    radius: 0.4848891225887608
    true_radius: 0.23488912258876082
---
header: 
  seq: 2765
  stamp: 
    secs: 1690956073
    nsecs: 353275000
  frame_id: "laser_frame"
segments: 
  - 
    first_point: 
      x: -5.933977356531006
      y: -1.7519435282749358
      z: 0.0
    last_point: 
      x: -6.046036381395687
      y: -2.560360034242667
      z: 0.0
  - 
    first_point: 
      x: -1.5075035562546202
      y: -2.8870892574195177
      z: 0.0
    last_point: 
      x: -0.7133257465743831
      y: -2.9595543802222526
      z: 0.0
circles: 
  - 
    center: 
      x: -0.19480044829244592
      y: -3.1020214451782446
      z: 0.0
    velocity: 
      x: 0.0
      y: 0.0
      z: 0.0
    radius: 0.4665787396752234
    true_radius: 0.2165787396752234
  - 
    center: 
      x: 0.1387342069705605
      y: 0.16371606914337083
      z: 0.0
    velocity: 
      x: 0.0
      y: 0.0
      z: 0.0
    radius: 0.42266396806086254
    true_radius: 0.17266396806086254
  - 
    center: 
      x: -0.024602985959804265
      y: 0.5533302828906855
      z: 0.0
    velocity: 
      x: 0.0
      y: 0.0
      z: 0.0
    radius: 0.33952497975386886
    true_radius: 0.08952497975386886
  - 
    center: 
      x: -0.9630657082809833
      y: 0.22066500201048247
      z: 0.0
    velocity: 
      x: 0.0
      y: 0.0
      z: 0.0
    radius: 0.49163658906154095
    true_radius: 0.24163658906154095
---
header: 
  seq: 2766
  stamp: 
    secs: 1690956073
    nsecs: 452675000
  frame_id: "laser_frame"
segments: 
  - 
    first_point: 
      x: -1.5226508007760513
      y: -2.8892003231668313
      z: 0.0
    last_point: 
      x: -0.6365563216255133
      y: -2.9587715263896226
      z: 0.0
circles: 
  - 
    center: 
      x: -0.13039874884295022
      y: -3.114266463488497
      z: 0.0
    velocity: 
      x: 0.0
      y: 0.0
      z: 0.0
    radius: 0.487728973653722
    true_radius: 0.23772897365372198
  - 
    center: 
      x: 0.12564254461758323
      y: 0.15196263733872378
      z: 0.0
    velocity: 
      x: 0.0
      y: 0.0
      z: 0.0
    radius: 0.41485031741357126
    true_radius: 0.16485031741357126
  - 
    center: 
      x: -0.9571832242515318
      y: 0.22696509128325945
      z: 0.0
    velocity: 
      x: 0.0
      y: 0.0
      z: 0.0
    radius: 0.48539623800732484
    true_radius: 0.23539623800732484
---
header: 
  seq: 2767
  stamp: 
    secs: 1690956073
    nsecs: 552075000
  frame_id: "laser_frame"
segments: 
  - 
    first_point: 
      x: -5.924531591688776
      y: -1.6748725799028161
      z: 0.0
    last_point: 
      x: -6.105163237707377
      y: -2.609003031678264
      z: 0.0
  - 
    first_point: 
      x: -1.5292154808921745
      y: -2.891816239245736
      z: 0.0
    last_point: 
      x: -0.6380921962919158
      y: -2.964778738857106
      z: 0.0
circles: 
  - 
    center: 
      x: -0.19085901729624724
      y: -3.106334975221929
      z: 0.0
    velocity: 
      x: 0.0
      y: 0.0
      z: 0.0
    radius: 0.48949846742348935
    true_radius: 0.23949846742348935
  - 
    center: 
      x: 0.13206446169259944
      y: 0.15912240460030308
      z: 0.0
    velocity: 
      x: 0.0
      y: 0.0
      z: 0.0
    radius: 0.4218358754458007
    true_radius: 0.1718358754458007
  - 
    center: 
      x: -0.9558431999711966
      y: 0.2192643612407992
      z: 0.0
    velocity: 
      x: 0.0
      y: 0.0
      z: 0.0
    radius: 0.4781066867923166
    true_radius: 0.2281066867923166
---
header: 
  seq: 2768
  stamp: 
    secs: 1690956073
    nsecs: 651475000
  frame_id: "laser_frame"
segments: 
  - 
    first_point: 
      x: -1.52685393445944
      y: -2.8922589703570196
      z: 0.0
    last_point: 
      x: -0.6745161066391182
      y: -2.9557432769598724
      z: 0.0
  - 
    first_point: 
      x: -0.33677873654471485
      y: -2.985274936479323
      z: 0.0
    last_point: 
      x: 0.037880241742059714
      y: -3.007340323779808
      z: 0.0
circles: 
  - 
    center: 
      x: 0.13355811087812813
      y: 0.16583003801457497
      z: 0.0
    velocity: 
      x: 0.0
      y: 0.0
      z: 0.0
    radius: 0.42196784815280464
    true_radius: 0.17196784815280464
  - 
    center: 
      x: -0.02490438622763967
      y: 0.5477200928436056
      z: 0.0
    velocity: 
      x: 0.0
      y: 0.0
      z: 0.0
    radius: 0.33638188642646727
    true_radius: 0.08638188642646727
  - 
    center: 
      x: -0.9605144123523454
      y: 0.2137261166105432
      z: 0.0
    velocity: 
      x: 0.0
      y: 0.0
      z: 0.0
    radius: 0.484665378731014
    true_radius: 0.234665378731014
---
header: 
  seq: 2769
  stamp: 
    secs: 1690956073
    nsecs: 750875000
  frame_id: "laser_frame"
segments: 
  - 
    first_point: 
      x: -1.515014704495737
      y: -2.894395060413973
      z: 0.0
    last_point: 
      x: -0.6755842062082269
      y: -2.9580587057121317
      z: 0.0
circles: 
  - 
    center: 
      x: 0.15122353696231686
      y: 0.14430412490304492
      z: 0.0
    velocity: 
      x: 0.0
      y: 0.0
      z: 0.0
    radius: 0.4260541034360722
    true_radius: 0.1760541034360722
  - 
    center: 
      x: -0.02343721663923217
      y: 0.5502474131986058
      z: 0.0
    velocity: 
      x: 0.0
      y: 0.0
      z: 0.0
    radius: 0.33799678271128064
    true_radius: 0.08799678271128064
  - 
    center: 
      x: -0.9608357064126943
      y: 0.22284844718475083
      z: 0.0
    velocity: 
      x: 0.0
      y: 0.0
      z: 0.0
    radius: 0.49177239342623286
    true_radius: 0.24177239342623286
---
header: 
  seq: 2770
  stamp: 
    secs: 1690956073
    nsecs: 850075000
  frame_id: "laser_frame"
segments: 
  - 
    first_point: 
      x: -6.014488749034094
      y: -1.766480545596518
      z: 0.0
    last_point: 
      x: -5.858637728247834
      y: -2.627890629148562
      z: 0.0
  - 
    first_point: 
      x: -1.4974101499432342
      y: -2.8896560214130425
      z: 0.0
    last_point: 
      x: -0.6754223871377102
      y: -2.9612997165096857
      z: 0.0
circles: 
  - 
    center: 
      x: -0.1982874335445853
      y: -3.102221454192804
      z: 0.0
    velocity: 
      x: 0.0
      y: 0.0
      z: 0.0
    radius: 0.46651099199124535
    true_radius: 0.21651099199124535
  - 
    center: 
      x: 0.14996403202310932
      y: 0.13490886963198445
      z: 0.0
    velocity: 
      x: 0.0
      y: 0.0
      z: 0.0
    radius: 0.42449729450716867
    true_radius: 0.17449729450716867
  - 
    center: 
      x: -0.9593212881352957
      y: 0.21396222028850223
      z: 0.0
    velocity: 
      x: 0.0
      y: 0.0
      z: 0.0
    radius: 0.4839718653551929
    true_radius: 0.23397186535519288
---
header: 
  seq: 2771
  stamp: 
    secs: 1690956073
    nsecs: 949475000
  frame_id: "laser_frame"
segments: 
  - 
    first_point: 
      x: -1.5249688897468237
      y: -2.888637086885801
      z: 0.0
    last_point: 
      x: -0.7111400460405687
      y: -2.9471740148498564
      z: 0.0
circles: 
  - 
    center: 
      x: -0.18201536959148934
      y: -3.108965672950573
      z: 0.0
    velocity: 
      x: 0.0
      y: 0.0
      z: 0.0
    radius: 0.48779827215226784
    true_radius: 0.23779827215226784
  - 
    center: 
      x: 0.13866590826436165
      y: 0.15963431151758248
      z: 0.0
    velocity: 
      x: 0.0
      y: 0.0
      z: 0.0
    radius: 0.4223924658993279
    true_radius: 0.17239246589932788
  - 
    center: 
      x: -0.028445717607134102
      y: 0.5426032461611469
      z: 0.0
    velocity: 
      x: 0.0
      y: 0.0
      z: 0.0
    radius: 0.3330128448154746
    true_radius: 0.0830128448154746
  - 
    center: 
      x: -0.9608199610158656
      y: 0.22293313376731827
      z: 0.0
    velocity: 
      x: 0.0
      y: 0.0
      z: 0.0
    radius: 0.49204573390925
    true_radius: 0.24204573390925
---
header: 
  seq: 2772
  stamp: 
    secs: 1690956074
    nsecs:  48875000
  frame_id: "laser_frame"
segments: 
  - 
    first_point: 
      x: -1.5295001673584663
      y: -2.8955832307622567
      z: 0.0
    last_point: 
      x: -0.6374501269549423
      y: -2.957317524735747
      z: 0.0
circles: 
  - 
    center: 
      x: -0.2204098440019111
      y: -3.0829558405604574
      z: 0.0
    velocity: 
      x: 0.0
      y: 0.0
      z: 0.0
    radius: 0.4718099499979641
    true_radius: 0.2218099499979641
  - 
    center: 
      x: 0.1284851633466545
      y: 0.16218890162194835
      z: 0.0
    velocity: 
      x: 0.0
      y: 0.0
      z: 0.0
    radius: 0.41495927604447325
    true_radius: 0.16495927604447325
  - 
    center: 
      x: -0.0259438185973479
      y: 0.5407684045426207
      z: 0.0
    velocity: 
      x: 0.0
      y: 0.0
      z: 0.0
    radius: 0.33535116305402485
    true_radius: 0.08535116305402485
  - 
    center: 
      x: -0.9586346253743556
      y: 0.21692615038803942
      z: 0.0
    velocity: 
      x: 0.0
      y: 0.0
      z: 0.0
    radius: 0.4850354791840108
    true_radius: 0.2350354791840108
---
