header: 
  seq: 1968
  stamp: 
    secs: 1692428645
    nsecs: 756248000
  frame_id: "laser_frame"
segments: []
circles: 
  - 
    center: 
      x: -2.9448069371948544
      y: -0.6264295955476966
      z: 0.0
    velocity: 
      x: 0.0
      y: 0.0
      z: 0.0
    radius: 0.25636756988656567
    true_radius: 0.15636756988656567
  - 
    center: 
      x: -0.36965444059376273
      y: -0.2002090779390373
      z: 0.0
    velocity: 
      x: 0.0
      y: 0.0
      z: 0.0
    radius: 0.18262517505253587
    true_radius: 0.08262517505253586
  - 
    center: 
      x: -0.5173758153159799
      y: -0.574865324682482
      z: 0.0
    velocity: 
      x: 0.0
      y: 0.0
      z: 0.0
    radius: 0.28714149793139515
    true_radius: 0.18714149793139515
  - 
    center: 
      x: -0.5350184600962706
      y: -1.5193896408498238
      z: 0.0
    velocity: 
      x: 0.0
      y: 0.0
      z: 0.0
    radius: 0.25616970861678784
    true_radius: 0.15616970861678783
  - 
    center: 
      x: 0.09052211322760322
      y: -0.11927808884008473
      z: 0.0
    velocity: 
      x: 0.0
      y: 0.0
      z: 0.0
    radius: 0.14204702189381355
    true_radius: 0.04204702189381354
  - 
    center: 
      x: 0.02269503719927688
      y: 0.16747368769422433
      z: 0.0
    velocity: 
      x: 0.0
      y: 0.0
      z: 0.0
    radius: 0.20180468952981895
    true_radius: 0.10180468952981894
  - 
    center: 
      x: -0.8503284714836221
      y: 0.31607402594084727
      z: 0.0
    velocity: 
      x: 0.0
      y: 0.0
      z: 0.0
    radius: 0.311102378840172
    true_radius: 0.211102378840172
---
header: 
  seq: 1969
  stamp: 
    secs: 1692428645
    nsecs: 855448000
  frame_id: "laser_frame"
segments: []
circles: 
  - 
    center: 
      x: -2.959600510916877
      y: -0.6066586736994923
      z: 0.0
    velocity: 
      x: 0.0
      y: 0.0
      z: 0.0
    radius: 0.2769733438960576
    true_radius: 0.1769733438960576
  - 
    center: 
      x: -0.393547743357374
      y: -0.20627181527480337
      z: 0.0
    velocity: 
      x: 0.0
      y: 0.0
      z: 0.0
    radius: 0.20701710498136222
    true_radius: 0.10701710498136222
  - 
    center: 
      x: -0.5173535862152043
      y: -0.580226423952908
      z: 0.0
    velocity: 
      x: 0.0
      y: 0.0
      z: 0.0
    radius: 0.2914512948169237
    true_radius: 0.19145129481692372
  - 
    center: 
      x: -0.5449901952531607
      y: -1.5122438331356844
      z: 0.0
    velocity: 
      x: 0.0
      y: 0.0
      z: 0.0
    radius: 0.24394201732809628
    true_radius: 0.14394201732809628
  - 
    center: 
      x: 0.08301924740195094
      y: -0.11631380615063402
      z: 0.0
    velocity: 
      x: 0.0
      y: 0.0
      z: 0.0
    radius: 0.13586024819331066
    true_radius: 0.035860248193310656
  - 
    center: 
      x: 0.008528243556936151
      y: 0.17292090727289558
      z: 0.0
    velocity: 
      x: 0.0
      y: 0.0
      z: 0.0
    radius: 0.200661896758695
    true_radius: 0.100661896758695
  - 
    center: 
      x: -0.8521674095945653
      y: 0.32209315871598077
      z: 0.0
    velocity: 
      x: 0.0
      y: 0.0
      z: 0.0
    radius: 0.32099878522294334
    true_radius: 0.22099878522294333
---
header: 
  seq: 1970
  stamp: 
    secs: 1692428645
    nsecs: 954848000
  frame_id: "laser_frame"
segments: []
circles: 
  - 
    center: 
      x: -0.35954363068028405
      y: -0.19966695294665093
      z: 0.0
    velocity: 
      x: 0.0
      y: 0.0
      z: 0.0
    radius: 0.17299428837343805
    true_radius: 0.07299428837343805
  - 
    center: 
      x: -0.5182848954528744
      y: -0.5751627677915861
      z: 0.0
    velocity: 
      x: 0.0
      y: 0.0
      z: 0.0
    radius: 0.28716071967871004
    true_radius: 0.18716071967871004
  - 
    center: 
      x: -0.5449878600210867
      y: -1.517678639747132
      z: 0.0
    velocity: 
      x: 0.0
      y: 0.0
      z: 0.0
    radius: 0.2653087989420669
    true_radius: 0.16530879894206688
  - 
    center: 
      x: 0.09003836522406293
      y: -0.11883899810186063
      z: 0.0
    velocity: 
      x: 0.0
      y: 0.0
      z: 0.0
    radius: 0.1414657727782465
    true_radius: 0.04146577277824651
  - 
    center: 
      x: 0.03254657527997251
      y: 0.1674131434475665
      z: 0.0
    velocity: 
      x: 0.0
      y: 0.0
      z: 0.0
    radius: 0.19076249580433802
    true_radius: 0.09076249580433801
  - 
    center: 
      x: -0.8589499677358469
      y: 0.30812186268225245
      z: 0.0
    velocity: 
      x: 0.0
      y: 0.0
      z: 0.0
    radius: 0.3276280959627546
    true_radius: 0.2276280959627546
---
header: 
  seq: 1971
  stamp: 
    secs: 1692428646
    nsecs:  54048000
  frame_id: "laser_frame"
segments: []
circles: 
  - 
    center: 
      x: -2.9605843788881807
      y: -0.6139593781986149
      z: 0.0
    velocity: 
      x: 0.0
      y: 0.0
      z: 0.0
    radius: 0.2754702976032998
    true_radius: 0.17547029760329977
  - 
    center: 
      x: -0.36950658513303997
      y: -0.1992163532896996
      z: 0.0
    velocity: 
      x: 0.0
      y: 0.0
      z: 0.0
    radius: 0.18145501297834365
    true_radius: 0.08145501297834365
  - 
    center: 
      x: -0.5168893796429507
      y: -0.5807982905076076
      z: 0.0
    velocity: 
      x: 0.0
      y: 0.0
      z: 0.0
    radius: 0.290949657455826
    true_radius: 0.190949657455826
  - 
    center: 
      x: -0.5450432461166123
      y: -1.5111986456099518
      z: 0.0
    velocity: 
      x: 0.0
      y: 0.0
      z: 0.0
    radius: 0.24608667010173207
    true_radius: 0.14608667010173207
  - 
    center: 
      x: 0.08592737475561865
      y: -0.11838565518512814
      z: 0.0
    velocity: 
      x: 0.0
      y: 0.0
      z: 0.0
    radius: 0.1385809474268687
    true_radius: 0.038580947426868684
  - 
    center: 
      x: 0.019147665904726226
      y: 0.16654599608406728
      z: 0.0
    velocity: 
      x: 0.0
      y: 0.0
      z: 0.0
    radius: 0.1995907719788257
    true_radius: 0.09959077197882568
  - 
    center: 
      x: -0.853027516368854
      y: 0.30289163797341073
      z: 0.0
    velocity: 
      x: 0.0
      y: 0.0
      z: 0.0
    radius: 0.3220253243958763
    true_radius: 0.22202532439587627
---
header: 
  seq: 1972
  stamp: 
    secs: 1692428646
    nsecs: 153248000
  frame_id: "laser_frame"
segments: []
circles: 
  - 
    center: 
      x: -2.951769384790224
      y: -0.6279975187939933
      z: 0.0
    velocity: 
      x: 0.0
      y: 0.0
      z: 0.0
    radius: 0.25581750620291543
    true_radius: 0.15581750620291543
  - 
    center: 
      x: -0.36683155919925303
      y: -0.2036526267358274
      z: 0.0
    velocity: 
      x: 0.0
      y: 0.0
      z: 0.0
    radius: 0.1838493811472996
    true_radius: 0.08384938114729959
  - 
    center: 
      x: -0.5126019831658767
      y: -0.5848940372621035
      z: 0.0
    velocity: 
      x: 0.0
      y: 0.0
      z: 0.0
    radius: 0.28700974572639365
    true_radius: 0.18700974572639364
  - 
    center: 
      x: -0.5457149432463929
      y: -1.5099233685919076
      z: 0.0
    velocity: 
      x: 0.0
      y: 0.0
      z: 0.0
    radius: 0.2435081142817095
    true_radius: 0.14350811428170948
  - 
    center: 
      x: 0.06831078956196115
      y: -0.1146358195829642
      z: 0.0
    velocity: 
      x: 0.0
      y: 0.0
      z: 0.0
    radius: 0.12175432854050702
    true_radius: 0.021754328540507017
  - 
    center: 
      x: 0.018263141350178386
      y: 0.17293922420856078
      z: 0.0
    velocity: 
      x: 0.0
      y: 0.0
      z: 0.0
    radius: 0.20394414541520836
    true_radius: 0.10394414541520836
  - 
    center: 
      x: -0.8512277377363642
      y: 0.26646260879406874
      z: 0.0
    velocity: 
      x: 0.0
      y: 0.0
      z: 0.0
    radius: 0.3017037173916719
    true_radius: 0.2017037173916719
---
header: 
  seq: 1973
  stamp: 
    secs: 1692428646
    nsecs: 252648000
  frame_id: "laser_frame"
segments: []
circles: 
  - 
    center: 
      x: -2.96001211288734
      y: -0.6057877275597322
      z: 0.0
    velocity: 
      x: 0.0
      y: 0.0
      z: 0.0
    radius: 0.27871417557684686
    true_radius: 0.17871417557684685
  - 
    center: 
      x: -0.365956171529925
      y: -0.20328922171339953
      z: 0.0
    velocity: 
      x: 0.0
      y: 0.0
      z: 0.0
    radius: 0.18230275274752236
    true_radius: 0.08230275274752236
  - 
    center: 
      x: -0.5163422492713778
      y: -0.5758040067111713
      z: 0.0
    velocity: 
      x: 0.0
      y: 0.0
      z: 0.0
    radius: 0.2873396939422396
    true_radius: 0.18733969394223962
  - 
    center: 
      x: -0.5327804202280736
      y: -1.523051965040481
      z: 0.0
    velocity: 
      x: 0.0
      y: 0.0
      z: 0.0
    radius: 0.2560246766070152
    true_radius: 0.15602467660701522
  - 
    center: 
      x: 0.08666208842516702
      y: -0.11820191437224441
      z: 0.0
    velocity: 
      x: 0.0
      y: 0.0
      z: 0.0
    radius: 0.1396547903474217
    true_radius: 0.0396547903474217
  - 
    center: 
      x: 0.02248703321809847
      y: 0.16574005568767466
      z: 0.0
    velocity: 
      x: 0.0
      y: 0.0
      z: 0.0
    radius: 0.19902713393247956
    true_radius: 0.09902713393247956
  - 
    center: 
      x: -0.8652431649010671
      y: 0.30296174017081623
      z: 0.0
    velocity: 
      x: 0.0
      y: 0.0
      z: 0.0
    radius: 0.32440945236998064
    true_radius: 0.22440945236998064
---
header: 
  seq: 1974
  stamp: 
    secs: 1692428646
    nsecs: 351848000
  frame_id: "laser_frame"
segments: []
circles: 
  - 
    center: 
      x: -2.9499379423460215
      y: -0.590829637994925
      z: 0.0
    velocity: 
      x: 0.0
      y: 0.0
      z: 0.0
    radius: 0.25474404091562464
    true_radius: 0.15474404091562463
  - 
    center: 
      x: -0.37628149715261466
      y: -0.2011933327917691
      z: 0.0
    velocity: 
      x: 0.0
      y: 0.0
      z: 0.0
    radius: 0.18818600136463975
    true_radius: 0.08818600136463975
  - 
    center: 
      x: -0.513974939751146
      y: -0.5828241206188827
      z: 0.0
    velocity: 
      x: 0.0
      y: 0.0
      z: 0.0
    radius: 0.2916675614284774
    true_radius: 0.19166756142847738
  - 
    center: 
      x: -0.5522618096745857
      y: -1.5052106852464047
      z: 0.0
    velocity: 
      x: 0.0
      y: 0.0
      z: 0.0
    radius: 0.23426036826458393
    true_radius: 0.13426036826458393
  - 
    center: 
      x: 0.08446577919920387
      y: -0.11741441495307386
      z: 0.0
    velocity: 
      x: 0.0
      y: 0.0
      z: 0.0
    radius: 0.13724090977501768
    true_radius: 0.03724090977501768
  - 
    center: 
      x: 0.02244354337178004
      y: 0.16764239621589663
      z: 0.0
    velocity: 
      x: 0.0
      y: 0.0
      z: 0.0
    radius: 0.2018433189950554
    true_radius: 0.10184331899505539
  - 
    center: 
      x: -0.8713318739994476
      y: 0.30984080082082804
      z: 0.0
    velocity: 
      x: 0.0
      y: 0.0
      z: 0.0
    radius: 0.3367927026723744
    true_radius: 0.23679270267237437
---
header: 
  seq: 1975
  stamp: 
    secs: 1692428646
    nsecs: 451048000
  frame_id: "laser_frame"
segments: []
circles: 
  - 
    center: 
      x: -2.952861251548294
      y: -0.5884874638321187
      z: 0.0
    velocity: 
      x: 0.0
      y: 0.0
      z: 0.0
    radius: 0.2560464095784939
    true_radius: 0.1560464095784939
  - 
    center: 
      x: -0.37703359330243186
      y: -0.2053962787381586
      z: 0.0
    velocity: 
      x: 0.0
      y: 0.0
      z: 0.0
    radius: 0.19188442641841005
    true_radius: 0.09188442641841005
  - 
    center: 
      x: -0.5164006629573735
      y: -0.5815707111848052
      z: 0.0
    velocity: 
      x: 0.0
      y: 0.0
      z: 0.0
    radius: 0.291782461441705
    true_radius: 0.191782461441705
  - 
    center: 
      x: -0.5309080173577359
      y: -1.5203292900276446
      z: 0.0
    velocity: 
      x: 0.0
      y: 0.0
      z: 0.0
    radius: 0.25463881307379593
    true_radius: 0.15463881307379593
  - 
    center: 
      x: 0.08736868395166135
      y: -0.1187934176481707
      z: 0.0
    velocity: 
      x: 0.0
      y: 0.0
      z: 0.0
    radius: 0.14003750319350347
    true_radius: 0.040037503193503465
  - 
    center: 
      x: 0.02961883735966719
      y: 0.16794637379107147
      z: 0.0
    velocity: 
      x: 0.0
      y: 0.0
      z: 0.0
    radius: 0.19050296150643176
    true_radius: 0.09050296150643175
  - 
    center: 
      x: -0.8736865417334504
      y: 0.3158904922042226
      z: 0.0
    velocity: 
      x: 0.0
      y: 0.0
      z: 0.0
    radius: 0.3455587778413247
    true_radius: 0.2455587778413247
---
header: 
  seq: 1976
  stamp: 
    secs: 1692428646
    nsecs: 550248000
  frame_id: "laser_frame"
segments: []
circles: 
  - 
    center: 
      x: -2.958880548066122
      y: -0.6035090330369864
      z: 0.0
    velocity: 
      x: 0.0
      y: 0.0
      z: 0.0
    radius: 0.2786317212344428
    true_radius: 0.1786317212344428
  - 
    center: 
      x: -0.39357247448857896
      y: -0.2057236258786984
      z: 0.0
    velocity: 
      x: 0.0
      y: 0.0
      z: 0.0
    radius: 0.20677875710703147
    true_radius: 0.10677875710703147
  - 
    center: 
      x: -0.5123746752195169
      y: -0.5850215422895679
      z: 0.0
    velocity: 
      x: 0.0
      y: 0.0
      z: 0.0
    radius: 0.28742044493527485
    true_radius: 0.18742044493527485
  - 
    center: 
      x: -0.5428612930510598
      y: -1.5136096321581458
      z: 0.0
    velocity: 
      x: 0.0
      y: 0.0
      z: 0.0
    radius: 0.24526138269738337
    true_radius: 0.14526138269738337
  - 
    center: 
      x: 0.08741666564498102
      y: -0.11863220522092258
      z: 0.0
    velocity: 
      x: 0.0
      y: 0.0
      z: 0.0
    radius: 0.14005160407888492
    true_radius: 0.04005160407888492
  - 
    center: 
      x: 0.02496649965021162
      y: 0.16752677339444394
      z: 0.0
    velocity: 
      x: 0.0
      y: 0.0
      z: 0.0
    radius: 0.20325429724502114
    true_radius: 0.10325429724502114
  - 
    center: 
      x: -0.8644235517734339
      y: 0.3119590453164718
      z: 0.0
    velocity: 
      x: 0.0
      y: 0.0
      z: 0.0
    radius: 0.32355093385187583
    true_radius: 0.22355093385187583
---
header: 
  seq: 1977
  stamp: 
    secs: 1692428646
    nsecs: 649448000
  frame_id: "laser_frame"
segments: []
circles: 
  - 
    center: 
      x: -2.9473364498074908
      y: -0.6268455966514136
      z: 0.0
    velocity: 
      x: 0.0
      y: 0.0
      z: 0.0
    radius: 0.25705222637704184
    true_radius: 0.15705222637704183
  - 
    center: 
      x: -0.36958137741256997
      y: -0.2037711515886473
      z: 0.0
    velocity: 
      x: 0.0
      y: 0.0
      z: 0.0
    radius: 0.18401538087323288
    true_radius: 0.08401538087323288
  - 
    center: 
      x: -0.5135817414370644
      y: -0.5847067220600992
      z: 0.0
    velocity: 
      x: 0.0
      y: 0.0
      z: 0.0
    radius: 0.28763702162341787
    true_radius: 0.18763702162341786
  - 
    center: 
      x: -0.5447389047109837
      y: -1.5102208753945037
      z: 0.0
    velocity: 
      x: 0.0
      y: 0.0
      z: 0.0
    radius: 0.2435543550005331
    true_radius: 0.1435543550005331
  - 
    center: 
      x: 0.14094227154882083
      y: 0.08799907719801553
      z: 0.0
    velocity: 
      x: 0.0
      y: 0.0
      z: 0.0
    radius: 0.24111311918257594
    true_radius: 0.14111311918257594
  - 
    center: 
      x: -0.8680691507659044
      y: 0.308670298716741
      z: 0.0
    velocity: 
      x: 0.0
      y: 0.0
      z: 0.0
    radius: 0.3351060821988641
    true_radius: 0.2351060821988641
---
header: 
  seq: 1978
  stamp: 
    secs: 1692428646
    nsecs: 748648000
  frame_id: "laser_frame"
segments: []
circles: 
  - 
    center: 
      x: -2.9553935799499316
      y: -0.6106548120319504
      z: 0.0
    velocity: 
      x: 0.0
      y: 0.0
      z: 0.0
    radius: 0.27579802639719114
    true_radius: 0.17579802639719114
  - 
    center: 
      x: -0.3722877784094016
      y: -0.20132174282636967
      z: 0.0
    velocity: 
      x: 0.0
      y: 0.0
      z: 0.0
    radius: 0.18369094736718283
    true_radius: 0.08369094736718283
  - 
    center: 
      x: -0.5155515051081377
      y: -0.5750387167579674
      z: 0.0
    velocity: 
      x: 0.0
      y: 0.0
      z: 0.0
    radius: 0.27994127733231283
    true_radius: 0.17994127733231283
  - 
    center: 
      x: -0.5534444042759283
      y: -1.5113735566995787
      z: 0.0
    velocity: 
      x: 0.0
      y: 0.0
      z: 0.0
    radius: 0.2564244603459137
    true_radius: 0.1564244603459137
  - 
    center: 
      x: 0.09193021816687025
      y: -0.11849195067586167
      z: 0.0
    velocity: 
      x: 0.0
      y: 0.0
      z: 0.0
    radius: 0.14182947030909251
    true_radius: 0.04182947030909251
  - 
    center: 
      x: 0.023022293193929958
      y: 0.16547774703418633
      z: 0.0
    velocity: 
      x: 0.0
      y: 0.0
      z: 0.0
    radius: 0.1998602395350624
    true_radius: 0.0998602395350624
  - 
    center: 
      x: -0.8627856060398944
      y: 0.3058871670472172
      z: 0.0
    velocity: 
      x: 0.0
      y: 0.0
      z: 0.0
    radius: 0.3345336599603714
    true_radius: 0.23453365996037137
---
header: 
  seq: 1979
  stamp: 
    secs: 1692428646
    nsecs: 847648000
  frame_id: "laser_frame"
segments: []
circles: 
  - 
    center: 
      x: -2.9627888979669748
      y: -0.60713039505733
      z: 0.0
    velocity: 
      x: 0.0
      y: 0.0
      z: 0.0
    radius: 0.2765892419566457
    true_radius: 0.1765892419566457
  - 
    center: 
      x: -0.37670003045407785
      y: -0.20402914235954087
      z: 0.0
    velocity: 
      x: 0.0
      y: 0.0
      z: 0.0
    radius: 0.19056739219628394
    true_radius: 0.09056739219628393
  - 
    center: 
      x: -0.5190816577628671
      y: -0.5809350828794482
      z: 0.0
    velocity: 
      x: 0.0
      y: 0.0
      z: 0.0
    radius: 0.29163511916566565
    true_radius: 0.19163511916566564
  - 
    center: 
      x: -0.5481003223525664
      y: -1.5174201984747189
      z: 0.0
    velocity: 
      x: 0.0
      y: 0.0
      z: 0.0
    radius: 0.2649819968291956
    true_radius: 0.1649819968291956
  - 
    center: 
      x: 0.09022199948927767
      y: -0.11853826828730393
      z: 0.0
    velocity: 
      x: 0.0
      y: 0.0
      z: 0.0
    radius: 0.1417822855916632
    true_radius: 0.04178228559166319
  - 
    center: 
      x: 0.011661900921885675
      y: 0.1715354141269766
      z: 0.0
    velocity: 
      x: 0.0
      y: 0.0
      z: 0.0
    radius: 0.19991339714982867
    true_radius: 0.09991339714982866
  - 
    center: 
      x: -0.8586492743181919
      y: 0.3111749081703571
      z: 0.0
    velocity: 
      x: 0.0
      y: 0.0
      z: 0.0
    radius: 0.3305499717359993
    true_radius: 0.2305499717359993
---
header: 
  seq: 1980
  stamp: 
    secs: 1692428646
    nsecs: 946848000
  frame_id: "laser_frame"
segments: []
circles: 
  - 
    center: 
      x: -2.9588966235335032
      y: -0.6062679874949873
      z: 0.0
    velocity: 
      x: 0.0
      y: 0.0
      z: 0.0
    radius: 0.2786429084440265
    true_radius: 0.1786429084440265
  - 
    center: 
      x: -0.3909549747176784
      y: -0.20580713934590153
      z: 0.0
    velocity: 
      x: 0.0
      y: 0.0
      z: 0.0
    radius: 0.20525251884392504
    true_radius: 0.10525251884392503
  - 
    center: 
      x: -0.5148783731596439
      y: -0.5800165561778531
      z: 0.0
    velocity: 
      x: 0.0
      y: 0.0
      z: 0.0
    radius: 0.2837944631993475
    true_radius: 0.18379446319934747
  - 
    center: 
      x: -0.5227077643549576
      y: -1.5365931024659951
      z: 0.0
    velocity: 
      x: 0.0
      y: 0.0
      z: 0.0
    radius: 0.2676952443485953
    true_radius: 0.1676952443485953
  - 
    center: 
      x: 0.08740670968460755
      y: -0.11845290961713686
      z: 0.0
    velocity: 
      x: 0.0
      y: 0.0
      z: 0.0
    radius: 0.14010395878615128
    true_radius: 0.04010395878615128
  - 
    center: 
      x: 0.016891140573097606
      y: 0.17231094284193574
      z: 0.0
    velocity: 
      x: 0.0
      y: 0.0
      z: 0.0
    radius: 0.20306498603505868
    true_radius: 0.10306498603505868
  - 
    center: 
      x: -0.8590026915524972
      y: 0.3167195815340439
      z: 0.0
    velocity: 
      x: 0.0
      y: 0.0
      z: 0.0
    radius: 0.33330709198624353
    true_radius: 0.23330709198624353
---
header: 
  seq: 1981
  stamp: 
    secs: 1692428647
    nsecs:  46048000
  frame_id: "laser_frame"
segments: []
circles: 
  - 
    center: 
      x: -2.959850788919493
      y: -0.6090236132075748
      z: 0.0
    velocity: 
      x: 0.0
      y: 0.0
      z: 0.0
    radius: 0.27680234705532847
    true_radius: 0.17680234705532846
  - 
    center: 
      x: -0.3916670411621143
      y: -0.20568673117250344
      z: 0.0
    velocity: 
      x: 0.0
      y: 0.0
      z: 0.0
    radius: 0.20492157462000243
    true_radius: 0.10492157462000243
  - 
    center: 
      x: -0.515611718578137
      y: -0.5850932863053209
      z: 0.0
    velocity: 
      x: 0.0
      y: 0.0
      z: 0.0
    radius: 0.2876995522408566
    true_radius: 0.18769955224085658
  - 
    center: 
      x: -0.5515823051610652
      y: -1.5076183915760135
      z: 0.0
    velocity: 
      x: 0.0
      y: 0.0
      z: 0.0
    radius: 0.2346352892527965
    true_radius: 0.1346352892527965
  - 
    center: 
      x: 0.14078562232946068
      y: 0.050767828740827685
      z: 0.0
    velocity: 
      x: 0.0
      y: 0.0
      z: 0.0
    radius: 0.24833274735611752
    true_radius: 0.1483327473561175
  - 
    center: 
      x: -0.8594183840280133
      y: 0.31951596359076895
      z: 0.0
    velocity: 
      x: 0.0
      y: 0.0
      z: 0.0
    radius: 0.32246915691292904
    true_radius: 0.22246915691292904
---
header: 
  seq: 1982
  stamp: 
    secs: 1692428647
    nsecs: 145248000
  frame_id: "laser_frame"
segments: []
circles: 
  - 
    center: 
      x: -2.9498886124570762
      y: -0.5865423021753852
      z: 0.0
    velocity: 
      x: 0.0
      y: 0.0
      z: 0.0
    radius: 0.2564588295703056
    true_radius: 0.15645882957030557
  - 
    center: 
      x: -0.39139377572274214
      y: -0.20675227158121387
      z: 0.0
    velocity: 
      x: 0.0
      y: 0.0
      z: 0.0
    radius: 0.20622994983911574
    true_radius: 0.10622994983911574
  - 
    center: 
      x: -0.5152157261737921
      y: -0.5856752219591372
      z: 0.0
    velocity: 
      x: 0.0
      y: 0.0
      z: 0.0
    radius: 0.287493437742263
    true_radius: 0.18749343774226299
  - 
    center: 
      x: -0.512641809511044
      y: -1.5308232673573274
      z: 0.0
    velocity: 
      x: 0.0
      y: 0.0
      z: 0.0
    radius: 0.2449432659879596
    true_radius: 0.1449432659879596
  - 
    center: 
      x: 0.08743690975195909
      y: -0.11860478961801205
      z: 0.0
    velocity: 
      x: 0.0
      y: 0.0
      z: 0.0
    radius: 0.14006610860304253
    true_radius: 0.04006610860304252
  - 
    center: 
      x: 0.01616295776790818
      y: 0.1707848365797222
      z: 0.0
    velocity: 
      x: 0.0
      y: 0.0
      z: 0.0
    radius: 0.19946521222806068
    true_radius: 0.09946521222806068
  - 
    center: 
      x: -0.8652060584472703
      y: 0.30714846086885456
      z: 0.0
    velocity: 
      x: 0.0
      y: 0.0
      z: 0.0
    radius: 0.33012276959421916
    true_radius: 0.23012276959421915
---
header: 
  seq: 1983
  stamp: 
    secs: 1692428647
    nsecs: 244448000
  frame_id: "laser_frame"
segments: []
circles: 
  - 
    center: 
      x: -2.9574589253328774
      y: -0.6098649716813727
      z: 0.0
    velocity: 
      x: 0.0
      y: 0.0
      z: 0.0
    radius: 0.2772101730854355
    true_radius: 0.1772101730854355
  - 
    center: 
      x: -0.37280685117240037
      y: -0.20333044479320894
      z: 0.0
    velocity: 
      x: 0.0
      y: 0.0
      z: 0.0
    radius: 0.1876308882473503
    true_radius: 0.0876308882473503
  - 
    center: 
      x: -0.5148744601383421
      y: -0.586567173616321
      z: 0.0
    velocity: 
      x: 0.0
      y: 0.0
      z: 0.0
    radius: 0.28763632545131457
    true_radius: 0.18763632545131456
  - 
    center: 
      x: -0.5468093832485084
      y: -1.5223339018957793
      z: 0.0
    velocity: 
      x: 0.0
      y: 0.0
      z: 0.0
    radius: 0.26669615658841167
    true_radius: 0.16669615658841166
  - 
    center: 
      x: 0.08996853540605411
      y: -0.11751615133335117
      z: 0.0
    velocity: 
      x: 0.0
      y: 0.0
      z: 0.0
    radius: 0.13934087765947212
    true_radius: 0.03934087765947211
  - 
    center: 
      x: 0.02377928807059822
      y: 0.16614359178015936
      z: 0.0
    velocity: 
      x: 0.0
      y: 0.0
      z: 0.0
    radius: 0.1996923627271522
    true_radius: 0.0996923627271522
  - 
    center: 
      x: -0.8650131501008249
      y: 0.2971997388947832
      z: 0.0
    velocity: 
      x: 0.0
      y: 0.0
      z: 0.0
    radius: 0.32214447338805896
    true_radius: 0.22214447338805896
---
header: 
  seq: 1984
  stamp: 
    secs: 1692428647
    nsecs: 343648000
  frame_id: "laser_frame"
segments: []
circles: 
  - 
    center: 
      x: -2.9496363695485655
      y: -0.6291249485403859
      z: 0.0
    velocity: 
      x: 0.0
      y: 0.0
      z: 0.0
    radius: 0.25510748056614485
    true_radius: 0.15510748056614485
  - 
    center: 
      x: -0.36902159976393917
      y: -0.2029063964665671
      z: 0.0
    velocity: 
      x: 0.0
      y: 0.0
      z: 0.0
    radius: 0.1848983923677564
    true_radius: 0.0848983923677564
  - 
    center: 
      x: -0.5176157188959412
      y: -0.5819980593997033
      z: 0.0
    velocity: 
      x: 0.0
      y: 0.0
      z: 0.0
    radius: 0.2915729237806867
    true_radius: 0.19157292378068672
  - 
    center: 
      x: -0.5526713075482638
      y: -1.508435342478807
      z: 0.0
    velocity: 
      x: 0.0
      y: 0.0
      z: 0.0
    radius: 0.24007016270593257
    true_radius: 0.14007016270593256
  - 
    center: 
      x: 0.08434471574368643
      y: -0.11752716018553687
      z: 0.0
    velocity: 
      x: 0.0
      y: 0.0
      z: 0.0
    radius: 0.13701469481442285
    true_radius: 0.03701469481442285
  - 
    center: 
      x: 0.009496775362555318
      y: 0.17340200447535492
      z: 0.0
    velocity: 
      x: 0.0
      y: 0.0
      z: 0.0
    radius: 0.20117232109467426
    true_radius: 0.10117232109467425
  - 
    center: 
      x: -0.8583903811036564
      y: 0.29719588198306457
      z: 0.0
    velocity: 
      x: 0.0
      y: 0.0
      z: 0.0
    radius: 0.3181136408488391
    true_radius: 0.21811364084883908
---
header: 
  seq: 1985
  stamp: 
    secs: 1692428647
    nsecs: 443048000
  frame_id: "laser_frame"
segments: 
  - 
    first_point: 
      x: -6.358789556470785
      y: 0.5563810117798302
      z: 0.0
    last_point: 
      x: -6.399125722913947
      y: 0.0008086282946783064
      z: 0.0
circles: 
  - 
    center: 
      x: -2.9518576232166076
      y: -0.5864587710868249
      z: 0.0
    velocity: 
      x: 0.0
      y: 0.0
      z: 0.0
    radius: 0.2571382435976499
    true_radius: 0.1571382435976499
  - 
    center: 
      x: -0.3769987398924526
      y: -0.2044052192598673
      z: 0.0
    velocity: 
      x: 0.0
      y: 0.0
      z: 0.0
    radius: 0.19159238997998884
    true_radius: 0.09159238997998884
  - 
    center: 
      x: -0.514519533730778
      y: -0.5850508583006343
      z: 0.0
    velocity: 
      x: 0.0
      y: 0.0
      z: 0.0
    radius: 0.2877323684339361
    true_radius: 0.18773236843393612
  - 
    center: 
      x: -0.5213511530102357
      y: -1.5379549893736066
      z: 0.0
    velocity: 
      x: 0.0
      y: 0.0
      z: 0.0
    radius: 0.26797569336858673
    true_radius: 0.16797569336858673
  - 
    center: 
      x: 0.08742220064323322
      y: -0.11874258893352324
      z: 0.0
    velocity: 
      x: 0.0
      y: 0.0
      z: 0.0
    radius: 0.1400674054128965
    true_radius: 0.040067405412896495
  - 
    center: 
      x: 0.004665856781777597
      y: 0.16983110404831442
      z: 0.0
    velocity: 
      x: 0.0
      y: 0.0
      z: 0.0
    radius: 0.19598964716992623
    true_radius: 0.09598964716992622
  - 
    center: 
      x: -0.8659801242763409
      y: 0.3148148831905877
      z: 0.0
    velocity: 
      x: 0.0
      y: 0.0
      z: 0.0
    radius: 0.33361695731083013
    true_radius: 0.23361695731083013
---
header: 
  seq: 1986
  stamp: 
    secs: 1692428647
    nsecs: 542248000
  frame_id: "laser_frame"
segments: []
circles: 
  - 
    center: 
      x: -2.949931835773013
      y: -0.6265373654893716
      z: 0.0
    velocity: 
      x: 0.0
      y: 0.0
      z: 0.0
    radius: 0.25737574853133416
    true_radius: 0.15737574853133415
  - 
    center: 
      x: -0.3683327610475176
      y: -0.20370931551645127
      z: 0.0
    velocity: 
      x: 0.0
      y: 0.0
      z: 0.0
    radius: 0.1836387205945274
    true_radius: 0.0836387205945274
  - 
    center: 
      x: -0.5137165582994492
      y: -0.5846004515120796
      z: 0.0
    velocity: 
      x: 0.0
      y: 0.0
      z: 0.0
    radius: 0.28761688186998635
    true_radius: 0.18761688186998635
  - 
    center: 
      x: -0.5469373694738755
      y: -1.5180112242771726
      z: 0.0
    velocity: 
      x: 0.0
      y: 0.0
      z: 0.0
    radius: 0.24582107826198416
    true_radius: 0.14582107826198415
  - 
    center: 
      x: 0.08599991039148876
      y: -0.1183078546288854
      z: 0.0
    velocity: 
      x: 0.0
      y: 0.0
      z: 0.0
    radius: 0.13860309878418464
    true_radius: 0.038603098784184636
  - 
    center: 
      x: 0.019807631886416002
      y: 0.1655841613065829
      z: 0.0
    velocity: 
      x: 0.0
      y: 0.0
      z: 0.0
    radius: 0.19951046733184102
    true_radius: 0.09951046733184102
  - 
    center: 
      x: -0.8573494508336524
      y: 0.3034691079433723
      z: 0.0
    velocity: 
      x: 0.0
      y: 0.0
      z: 0.0
    radius: 0.31617940988045345
    true_radius: 0.21617940988045345
---
header: 
  seq: 1987
  stamp: 
    secs: 1692428647
    nsecs: 641648000
  frame_id: "laser_frame"
segments: 
  - 
    first_point: 
      x: -2.8644822562959673
      y: -0.4649092338479508
      z: 0.0
    last_point: 
      x: -2.8877241303956467
      y: -0.7699095955542526
      z: 0.0
circles: 
  - 
    center: 
      x: -0.3704073409049825
      y: -0.20046367416345162
      z: 0.0
    velocity: 
      x: 0.0
      y: 0.0
      z: 0.0
    radius: 0.18300652610210785
    true_radius: 0.08300652610210785
  - 
    center: 
      x: -0.5183674430502389
      y: -0.5799435317767504
      z: 0.0
    velocity: 
      x: 0.0
      y: 0.0
      z: 0.0
    radius: 0.2917982121113961
    true_radius: 0.1917982121113961
  - 
    center: 
      x: -0.5336727445174688
      y: -1.5230898574196494
      z: 0.0
    velocity: 
      x: 0.0
      y: 0.0
      z: 0.0
    radius: 0.2541957274045467
    true_radius: 0.1541957274045467
  - 
    center: 
      x: 0.09027050960435772
      y: -0.11867019954724144
      z: 0.0
    velocity: 
      x: 0.0
      y: 0.0
      z: 0.0
    radius: 0.14178375186218986
    true_radius: 0.041783751862189855
  - 
    center: 
      x: 0.014467905885400978
      y: 0.17192061691757202
      z: 0.0
    velocity: 
      x: 0.0
      y: 0.0
      z: 0.0
    radius: 0.20201627731614602
    true_radius: 0.10201627731614601
  - 
    center: 
      x: -0.8600170136340345
      y: 0.30994738142727357
      z: 0.0
    velocity: 
      x: 0.0
      y: 0.0
      z: 0.0
    radius: 0.3300045243115609
    true_radius: 0.2300045243115609
---
header: 
  seq: 1988
  stamp: 
    secs: 1692428647
    nsecs: 740848000
  frame_id: "laser_frame"
segments: []
circles: 
  - 
    center: 
      x: -2.9481041024029095
      y: -0.5870534886801091
      z: 0.0
    velocity: 
      x: 0.0
      y: 0.0
      z: 0.0
    radius: 0.2562776593221606
    true_radius: 0.15627765932216062
  - 
    center: 
      x: -0.3790591330632247
      y: -0.2056652838967815
      z: 0.0
    velocity: 
      x: 0.0
      y: 0.0
      z: 0.0
    radius: 0.19254517860642306
    true_radius: 0.09254517860642306
  - 
    center: 
      x: -0.5136989331636228
      y: -0.5846306086895398
      z: 0.0
    velocity: 
      x: 0.0
      y: 0.0
      z: 0.0
    radius: 0.28731410003420993
    true_radius: 0.18731410003420992
  - 
    center: 
      x: -0.5416489411761587
      y: -1.5176313247400333
      z: 0.0
    velocity: 
      x: 0.0
      y: 0.0
      z: 0.0
    radius: 0.24375712744666142
    true_radius: 0.14375712744666141
  - 
    center: 
      x: 0.08657156489098297
      y: -0.1186075772886108
      z: 0.0
    velocity: 
      x: 0.0
      y: 0.0
      z: 0.0
    radius: 0.1391320939276078
    true_radius: 0.0391320939276078
  - 
    center: 
      x: 0.014324515665156114
      y: 0.17413454431830022
      z: 0.0
    velocity: 
      x: 0.0
      y: 0.0
      z: 0.0
    radius: 0.20397262457564708
    true_radius: 0.10397262457564707
  - 
    center: 
      x: -0.8423287808876693
      y: 0.3116554926341261
      z: 0.0
    velocity: 
      x: 0.0
      y: 0.0
      z: 0.0
    radius: 0.3328105678950673
    true_radius: 0.2328105678950673
---
header: 
  seq: 1989
  stamp: 
    secs: 1692428647
    nsecs: 840248000
  frame_id: "laser_frame"
segments: []
circles: 
  - 
    center: 
      x: -2.945252438983506
      y: -0.6277104662182728
      z: 0.0
    velocity: 
      x: 0.0
      y: 0.0
      z: 0.0
    radius: 0.25551736818106574
    true_radius: 0.15551736818106573
  - 
    center: 
      x: -0.37152851743911797
      y: -0.205128229661343
      z: 0.0
    velocity: 
      x: 0.0
      y: 0.0
      z: 0.0
    radius: 0.18589995775829718
    true_radius: 0.08589995775829717
  - 
    center: 
      x: -0.5131525612504473
      y: -0.5836272080711676
      z: 0.0
    velocity: 
      x: 0.0
      y: 0.0
      z: 0.0
    radius: 0.28679257259767843
    true_radius: 0.18679257259767842
  - 
    center: 
      x: -0.5450136117616676
      y: -1.5166740781722534
      z: 0.0
    velocity: 
      x: 0.0
      y: 0.0
      z: 0.0
    radius: 0.2467323795999866
    true_radius: 0.14673237959998658
  - 
    center: 
      x: 0.09142379827211324
      y: -0.11990649406132761
      z: 0.0
    velocity: 
      x: 0.0
      y: 0.0
      z: 0.0
    radius: 0.14430394741910607
    true_radius: 0.044303947419106066
  - 
    center: 
      x: 0.018652066315343597
      y: 0.16654576026572032
      z: 0.0
    velocity: 
      x: 0.0
      y: 0.0
      z: 0.0
    radius: 0.199645362748798
    true_radius: 0.09964536274879798
  - 
    center: 
      x: -0.6667633819516038
      y: 0.2711153911522802
      z: 0.0
    velocity: 
      x: 0.0
      y: 0.0
      z: 0.0
    radius: 0.2932809170760202
    true_radius: 0.19328091707602021
---
header: 
  seq: 1990
  stamp: 
    secs: 1692428647
    nsecs: 939448000
  frame_id: "laser_frame"
segments: []
circles: 
  - 
    center: 
      x: -2.9618932391371757
      y: -0.6082925684569919
      z: 0.0
    velocity: 
      x: 0.0
      y: 0.0
      z: 0.0
    radius: 0.27786651095475784
    true_radius: 0.17786651095475783
  - 
    center: 
      x: -0.3922908921232512
      y: -0.20920810278906032
      z: 0.0
    velocity: 
      x: 0.0
      y: 0.0
      z: 0.0
    radius: 0.2075452871233291
    true_radius: 0.10754528712332909
  - 
    center: 
      x: -0.5111457577458268
      y: -0.586760113065819
      z: 0.0
    velocity: 
      x: 0.0
      y: 0.0
      z: 0.0
    radius: 0.28302121490093035
    true_radius: 0.18302121490093035
  - 
    center: 
      x: -0.5455574118243421
      y: -1.5186575872189565
      z: 0.0
    velocity: 
      x: 0.0
      y: 0.0
      z: 0.0
    radius: 0.24357203253863094
    true_radius: 0.14357203253863093
  - 
    center: 
      x: 0.08299811986314189
      y: -0.11632875722961575
      z: 0.0
    velocity: 
      x: 0.0
      y: 0.0
      z: 0.0
    radius: 0.13585047866428632
    true_radius: 0.03585047866428631
  - 
    center: 
      x: 0.016115988396965732
      y: 0.17296527857165706
      z: 0.0
    velocity: 
      x: 0.0
      y: 0.0
      z: 0.0
    radius: 0.20399110701974782
    true_radius: 0.10399110701974781
  - 
    center: 
      x: -0.42954785013086705
      y: 0.270934827781877
      z: 0.0
    velocity: 
      x: 0.0
      y: 0.0
      z: 0.0
    radius: 0.14935991341420185
    true_radius: 0.049359913414201845
  - 
    center: 
      x: -0.8324298961905
      y: 0.20745743243983392
      z: 0.0
    velocity: 
      x: 0.0
      y: 0.0
      z: 0.0
    radius: 0.23271327133734188
    true_radius: 0.13271327133734187
---
header: 
  seq: 1991
  stamp: 
    secs: 1692428648
    nsecs:  38848000
  frame_id: "laser_frame"
segments: []
circles: 
  - 
    center: 
      x: -0.36209122807023714
      y: -0.20335966484056262
      z: 0.0
    velocity: 
      x: 0.0
      y: 0.0
      z: 0.0
    radius: 0.17501218818351355
    true_radius: 0.07501218818351355
  - 
    center: 
      x: -0.51421350934327
      y: -0.581916044798986
      z: 0.0
    velocity: 
      x: 0.0
      y: 0.0
      z: 0.0
    radius: 0.2864420991664679
    true_radius: 0.1864420991664679
  - 
    center: 
      x: -0.5346886060666419
      y: -1.524686905696031
      z: 0.0
    velocity: 
      x: 0.0
      y: 0.0
      z: 0.0
    radius: 0.25444300463803254
    true_radius: 0.15444300463803254
  - 
    center: 
      x: 0.09022721210155084
      y: -0.11912698887447666
      z: 0.0
    velocity: 
      x: 0.0
      y: 0.0
      z: 0.0
    radius: 0.14173233575763505
    true_radius: 0.04173233575763505
  - 
    center: 
      x: 0.012058460289604361
      y: 0.17193484026357303
      z: 0.0
    velocity: 
      x: 0.0
      y: 0.0
      z: 0.0
    radius: 0.19947455975749928
    true_radius: 0.09947455975749928
  - 
    center: 
      x: -0.8421057581859721
      y: 0.23417683881420118
      z: 0.0
    velocity: 
      x: 0.0
      y: 0.0
      z: 0.0
    radius: 0.2561707484207433
    true_radius: 0.15617074842074327
---
header: 
  seq: 1992
  stamp: 
    secs: 1692428648
    nsecs: 138048000
  frame_id: "laser_frame"
segments: []
circles: 
  - 
    center: 
      x: -2.9584187866990104
      y: -0.606158587518329
      z: 0.0
    velocity: 
      x: 0.0
      y: 0.0
      z: 0.0
    radius: 0.27806506358080796
    true_radius: 0.17806506358080795
  - 
    center: 
      x: -0.36990495516462135
      y: -0.20511628154471462
      z: 0.0
    velocity: 
      x: 0.0
      y: 0.0
      z: 0.0
    radius: 0.18302634443915838
    true_radius: 0.08302634443915838
  - 
    center: 
      x: -0.5113772498438404
      y: -0.5845658855558905
      z: 0.0
    velocity: 
      x: 0.0
      y: 0.0
      z: 0.0
    radius: 0.2873888154762976
    true_radius: 0.18738881547629757
  - 
    center: 
      x: -0.5460148027086064
      y: -1.5229938612072251
      z: 0.0
    velocity: 
      x: 0.0
      y: 0.0
      z: 0.0
    radius: 0.24610179364796314
    true_radius: 0.14610179364796314
  - 
    center: 
      x: 0.0863241905758202
      y: -0.1183685584077956
      z: 0.0
    velocity: 
      x: 0.0
      y: 0.0
      z: 0.0
    radius: 0.13888004292381473
    true_radius: 0.03888004292381472
  - 
    center: 
      x: 0.021974194608008316
      y: 0.16553457923243303
      z: 0.0
    velocity: 
      x: 0.0
      y: 0.0
      z: 0.0
    radius: 0.20010731304138768
    true_radius: 0.10010731304138767
  - 
    center: 
      x: -0.8402002545666243
      y: 0.2446066181740667
      z: 0.0
    velocity: 
      x: 0.0
      y: 0.0
      z: 0.0
    radius: 0.2667944434614167
    true_radius: 0.16679444346141667
---
header: 
  seq: 1993
  stamp: 
    secs: 1692428648
    nsecs: 237448000
  frame_id: "laser_frame"
segments: []
circles: 
  - 
    center: 
      x: -0.3730408647983884
      y: -0.2037113454812707
      z: 0.0
    velocity: 
      x: 0.0
      y: 0.0
      z: 0.0
    radius: 0.18573053860386712
    true_radius: 0.08573053860386712
  - 
    center: 
      x: -0.5143955721331288
      y: -0.5887310405120434
      z: 0.0
    velocity: 
      x: 0.0
      y: 0.0
      z: 0.0
    radius: 0.2914561829477815
    true_radius: 0.19145618294778147
  - 
    center: 
      x: -0.5309357367507394
      y: -1.5255422050653529
      z: 0.0
    velocity: 
      x: 0.0
      y: 0.0
      z: 0.0
    radius: 0.25458833757392574
    true_radius: 0.15458833757392573
  - 
    center: 
      x: 0.13982640152966802
      y: 0.08730084851813477
      z: 0.0
    velocity: 
      x: 0.0
      y: 0.0
      z: 0.0
    radius: 0.23914076419985628
    true_radius: 0.13914076419985627
  - 
    center: 
      x: -0.4089202578450231
      y: 0.2596472931310462
      z: 0.0
    velocity: 
      x: 0.0
      y: 0.0
      z: 0.0
    radius: 0.1271241979056189
    true_radius: 0.027124197905618902
  - 
    center: 
      x: -0.8281209530296102
      y: 0.22113316438698238
      z: 0.0
    velocity: 
      x: 0.0
      y: 0.0
      z: 0.0
    radius: 0.25266236496281136
    true_radius: 0.15266236496281135
---
header: 
  seq: 1994
  stamp: 
    secs: 1692428648
    nsecs: 337229000
  frame_id: "laser_frame"
segments: []
circles: 
  - 
    center: 
      x: -2.9589563360518065
      y: -0.6065233376711808
      z: 0.0
    velocity: 
      x: 0.0
      y: 0.0
      z: 0.0
    radius: 0.27826248608863846
    true_radius: 0.17826248608863846
  - 
    center: 
      x: -0.3624195266699508
      y: -0.20405847271291058
      z: 0.0
    velocity: 
      x: 0.0
      y: 0.0
      z: 0.0
    radius: 0.17572577021827557
    true_radius: 0.07572577021827556
  - 
    center: 
      x: -0.5132978956756037
      y: -0.578967723232422
      z: 0.0
    velocity: 
      x: 0.0
      y: 0.0
      z: 0.0
    radius: 0.2836207029965724
    true_radius: 0.18362070299657238
  - 
    center: 
      x: -0.5425807924676133
      y: -1.5215596136414962
      z: 0.0
    velocity: 
      x: 0.0
      y: 0.0
      z: 0.0
    radius: 0.2437511398836643
    true_radius: 0.14375113988366428
  - 
    center: 
      x: 0.08661672123534474
      y: -0.11824622794683894
      z: 0.0
    velocity: 
      x: 0.0
      y: 0.0
      z: 0.0
    radius: 0.139208476644669
    true_radius: 0.039208476644669005
  - 
    center: 
      x: 0.019223295844531023
      y: 0.16390653724113646
      z: 0.0
    velocity: 
      x: 0.0
      y: 0.0
      z: 0.0
    radius: 0.19638207056039397
    true_radius: 0.09638207056039397
  - 
    center: 
      x: -0.7985375649121781
      y: 0.19851188592972704
      z: 0.0
    velocity: 
      x: 0.0
      y: 0.0
      z: 0.0
    radius: 0.2239276380173103
    true_radius: 0.1239276380173103
---
header: 
  seq: 1995
  stamp: 
    secs: 1692428648
    nsecs: 436629000
  frame_id: "laser_frame"
segments: []
circles: 
  - 
    center: 
      x: -2.952158805380027
      y: -0.5894045231187264
      z: 0.0
    velocity: 
      x: 0.0
      y: 0.0
      z: 0.0
    radius: 0.2559914525051893
    true_radius: 0.15599145250518928
  - 
    center: 
      x: -0.37672566355775716
      y: -0.20250685840490326
      z: 0.0
    velocity: 
      x: 0.0
      y: 0.0
      z: 0.0
    radius: 0.18807427507867114
    true_radius: 0.08807427507867113
  - 
    center: 
      x: -0.5137306988690654
      y: -0.583644303456715
      z: 0.0
    velocity: 
      x: 0.0
      y: 0.0
      z: 0.0
    radius: 0.28746945836857596
    true_radius: 0.18746945836857595
  - 
    center: 
      x: -0.5575186809850573
      y: -1.51915083754272
      z: 0.0
    velocity: 
      x: 0.0
      y: 0.0
      z: 0.0
    radius: 0.2580121936287216
    true_radius: 0.15801219362872157
  - 
    center: 
      x: 0.08478053299906521
      y: -0.11610979101686655
      z: 0.0
    velocity: 
      x: 0.0
      y: 0.0
      z: 0.0
    radius: 0.13525190346593957
    true_radius: 0.035251903465939566
  - 
    center: 
      x: 0.02651603197165279
      y: 0.16780585432537445
      z: 0.0
    velocity: 
      x: 0.0
      y: 0.0
      z: 0.0
    radius: 0.20392114404477962
    true_radius: 0.10392114404477962
  - 
    center: 
      x: -0.3709492462418613
      y: 0.18794708893725282
      z: 0.0
    velocity: 
      x: 0.0
      y: 0.0
      z: 0.0
    radius: 0.12985064575283356
    true_radius: 0.029850645752833554
  - 
    center: 
      x: -0.7669259762007513
      y: 0.1715278775579815
      z: 0.0
    velocity: 
      x: 0.0
      y: 0.0
      z: 0.0
    radius: 0.19393648998943805
    true_radius: 0.09393648998943804
---
header: 
  seq: 1996
  stamp: 
    secs: 1692428648
    nsecs: 535829000
  frame_id: "laser_frame"
segments: []
circles: 
  - 
    center: 
      x: -2.949311112409627
      y: -0.625619155308372
      z: 0.0
    velocity: 
      x: 0.0
      y: 0.0
      z: 0.0
    radius: 0.25706396221301303
    true_radius: 0.15706396221301303
  - 
    center: 
      x: -0.3704038870067598
      y: -0.20653979377551848
      z: 0.0
    velocity: 
      x: 0.0
      y: 0.0
      z: 0.0
    radius: 0.18589875609304324
    true_radius: 0.08589875609304323
  - 
    center: 
      x: -0.5128494237314729
      y: -0.5837046345382049
      z: 0.0
    velocity: 
      x: 0.0
      y: 0.0
      z: 0.0
    radius: 0.2875115675995864
    true_radius: 0.1875115675995864
  - 
    center: 
      x: -0.5477954447374802
      y: -1.5187739838742387
      z: 0.0
    velocity: 
      x: 0.0
      y: 0.0
      z: 0.0
    radius: 0.24446331250177963
    true_radius: 0.14446331250177963
  - 
    center: 
      x: 0.08590132368873793
      y: -0.11774528157085945
      z: 0.0
    velocity: 
      x: 0.0
      y: 0.0
      z: 0.0
    radius: 0.1386648215906061
    true_radius: 0.03866482159060611
  - 
    center: 
      x: 0.012872121862828231
      y: 0.17042706063483434
      z: 0.0
    velocity: 
      x: 0.0
      y: 0.0
      z: 0.0
    radius: 0.19992550609901988
    true_radius: 0.09992550609901987
  - 
    center: 
      x: -0.3505869407811663
      y: 0.19867681794439557
      z: 0.0
    velocity: 
      x: 0.0
      y: 0.0
      z: 0.0
    radius: 0.1440654950870069
    true_radius: 0.044065495087006884
  - 
    center: 
      x: -0.7652388869523111
      y: 0.1838655436242105
      z: 0.0
    velocity: 
      x: 0.0
      y: 0.0
      z: 0.0
    radius: 0.19579944805953695
    true_radius: 0.09579944805953694
---
header: 
  seq: 1997
  stamp: 
    secs: 1692428648
    nsecs: 635229000
  frame_id: "laser_frame"
segments: []
circles: 
  - 
    center: 
      x: -2.959589277794628
      y: -0.6075343093160859
      z: 0.0
    velocity: 
      x: 0.0
      y: 0.0
      z: 0.0
    radius: 0.27821386246869895
    true_radius: 0.17821386246869894
  - 
    center: 
      x: -0.36976581066817904
      y: -0.20460354628824542
      z: 0.0
    velocity: 
      x: 0.0
      y: 0.0
      z: 0.0
    radius: 0.18171754539287502
    true_radius: 0.08171754539287501
  - 
    center: 
      x: -0.5116399389141074
      y: -0.5823270936518593
      z: 0.0
    velocity: 
      x: 0.0
      y: 0.0
      z: 0.0
    radius: 0.2795849324908084
    true_radius: 0.1795849324908084
  - 
    center: 
      x: -0.5426644063302237
      y: -1.5226959746521844
      z: 0.0
    velocity: 
      x: 0.0
      y: 0.0
      z: 0.0
    radius: 0.24472914483466546
    true_radius: 0.14472914483466545
  - 
    center: 
      x: 0.08663726643010218
      y: -0.11817677055413431
      z: 0.0
    velocity: 
      x: 0.0
      y: 0.0
      z: 0.0
    radius: 0.13964019742422218
    true_radius: 0.03964019742422217
  - 
    center: 
      x: 0.02227117249201058
      y: 0.16506530044181442
      z: 0.0
    velocity: 
      x: 0.0
      y: 0.0
      z: 0.0
    radius: 0.19906000626082532
    true_radius: 0.09906000626082531
  - 
    center: 
      x: -0.3591647906908226
      y: 0.21956935505198658
      z: 0.0
    velocity: 
      x: 0.0
      y: 0.0
      z: 0.0
    radius: 0.13869823592013286
    true_radius: 0.038698235920132856
  - 
    center: 
      x: -0.7866739476944247
      y: 0.19957706756628202
      z: 0.0
    velocity: 
      x: 0.0
      y: 0.0
      z: 0.0
    radius: 0.22175511563845807
    true_radius: 0.12175511563845806
---
header: 
  seq: 1998
  stamp: 
    secs: 1692428648
    nsecs: 734429000
  frame_id: "laser_frame"
segments: []
circles: 
  - 
    center: 
      x: -2.959629300746686
      y: -0.6092847648758634
      z: 0.0
    velocity: 
      x: 0.0
      y: 0.0
      z: 0.0
    radius: 0.27630640562222764
    true_radius: 0.17630640562222763
  - 
    center: 
      x: -0.36985098291477114
      y: -0.20425563426370172
      z: 0.0
    velocity: 
      x: 0.0
      y: 0.0
      z: 0.0
    radius: 0.18081349990532947
    true_radius: 0.08081349990532946
  - 
    center: 
      x: -0.5128658667591669
      y: -0.5853228048965113
      z: 0.0
    velocity: 
      x: 0.0
      y: 0.0
      z: 0.0
    radius: 0.28774679194082065
    true_radius: 0.18774679194082064
  - 
    center: 
      x: -0.5260830609419855
      y: -1.54670061939291
      z: 0.0
    velocity: 
      x: 0.0
      y: 0.0
      z: 0.0
    radius: 0.27037310782448754
    true_radius: 0.17037310782448753
  - 
    center: 
      x: 0.08424777463882749
      y: -0.1172996859676271
      z: 0.0
    velocity: 
      x: 0.0
      y: 0.0
      z: 0.0
    radius: 0.13701456406380536
    true_radius: 0.03701456406380535
  - 
    center: 
      x: 0.02603146336878339
      y: 0.16667021940866628
      z: 0.0
    velocity: 
      x: 0.0
      y: 0.0
      z: 0.0
    radius: 0.2020626164582262
    true_radius: 0.1020626164582262
  - 
    center: 
      x: -0.3697751640263562
      y: 0.2280530151898113
      z: 0.0
    velocity: 
      x: 0.0
      y: 0.0
      z: 0.0
    radius: 0.13622513682905804
    true_radius: 0.036225136829058036
  - 
    center: 
      x: -0.7916483682734631
      y: 0.2105962541900547
      z: 0.0
    velocity: 
      x: 0.0
      y: 0.0
      z: 0.0
    radius: 0.21680302629224557
    true_radius: 0.11680302629224557
---
header: 
  seq: 1999
  stamp: 
    secs: 1692428648
    nsecs: 833629000
  frame_id: "laser_frame"
segments: []
circles: 
  - 
    center: 
      x: -2.9489061171772173
      y: -0.5869512222604781
      z: 0.0
    velocity: 
      x: 0.0
      y: 0.0
      z: 0.0
    radius: 0.2562246720277977
    true_radius: 0.1562246720277977
  - 
    center: 
      x: -0.36928697094245
      y: -0.20435989300507978
      z: 0.0
    velocity: 
      x: 0.0
      y: 0.0
      z: 0.0
    radius: 0.1814353458060905
    true_radius: 0.08143534580609049
  - 
    center: 
      x: -0.5148494151588859
      y: -0.5841516905001757
      z: 0.0
    velocity: 
      x: 0.0
      y: 0.0
      z: 0.0
    radius: 0.28750888736232433
    true_radius: 0.18750888736232432
  - 
    center: 
      x: -0.5220855661311624
      y: -1.5463449592702587
      z: 0.0
    velocity: 
      x: 0.0
      y: 0.0
      z: 0.0
    radius: 0.2720350317332699
    true_radius: 0.17203503173326992
  - 
    center: 
      x: 0.0865267164129985
      y: -0.11880477877932567
      z: 0.0
    velocity: 
      x: 0.0
      y: 0.0
      z: 0.0
    radius: 0.13911416451003655
    true_radius: 0.03911416451003655
  - 
    center: 
      x: 0.030506928684294277
      y: 0.16814312547364998
      z: 0.0
    velocity: 
      x: 0.0
      y: 0.0
      z: 0.0
    radius: 0.19126914938514994
    true_radius: 0.09126914938514993
  - 
    center: 
      x: -0.3688784832120071
      y: 0.24884914593216953
      z: 0.0
    velocity: 
      x: 0.0
      y: 0.0
      z: 0.0
    radius: 0.1281796660190928
    true_radius: 0.028179666019092803
  - 
    center: 
      x: -0.7979299947435733
      y: 0.22566824090806217
      z: 0.0
    velocity: 
      x: 0.0
      y: 0.0
      z: 0.0
    radius: 0.2513214124729234
    true_radius: 0.15132141247292338
---
header: 
  seq: 2000
  stamp: 
    secs: 1692428648
    nsecs: 932829000
  frame_id: "laser_frame"
segments: []
circles: 
  - 
    center: 
      x: -2.9567614586402557
      y: -0.6041112589345351
      z: 0.0
    velocity: 
      x: 0.0
      y: 0.0
      z: 0.0
    radius: 0.2786091746989652
    true_radius: 0.17860917469896517
  - 
    center: 
      x: -0.3706039816660896
      y: -0.20258185363852846
      z: 0.0
    velocity: 
      x: 0.0
      y: 0.0
      z: 0.0
    radius: 0.18004939272966347
    true_radius: 0.08004939272966347
  - 
    center: 
      x: -0.5118475358622988
      y: -0.5840880651110615
      z: 0.0
    velocity: 
      x: 0.0
      y: 0.0
      z: 0.0
    radius: 0.2879129273691755
    true_radius: 0.1879129273691755
  - 
    center: 
      x: -0.5350711149279663
      y: -1.5309115871659893
      z: 0.0
    velocity: 
      x: 0.0
      y: 0.0
      z: 0.0
    radius: 0.25584407060645176
    true_radius: 0.15584407060645175
  - 
    center: 
      x: 0.08650079284629635
      y: -0.11857267457666823
      z: 0.0
    velocity: 
      x: 0.0
      y: 0.0
      z: 0.0
    radius: 0.13910513591923584
    true_radius: 0.03910513591923584
  - 
    center: 
      x: 0.02152754156116664
      y: 0.1663542924428529
      z: 0.0
    velocity: 
      x: 0.0
      y: 0.0
      z: 0.0
    radius: 0.1996527384548767
    true_radius: 0.09965273845487668
  - 
    center: 
      x: -0.8011556699406497
      y: 0.23611593032675593
      z: 0.0
    velocity: 
      x: 0.0
      y: 0.0
      z: 0.0
    radius: 0.2641384013615542
    true_radius: 0.1641384013615542
---
header: 
  seq: 2001
  stamp: 
    secs: 1692428649
    nsecs:  32029000
  frame_id: "laser_frame"
segments: []
circles: 
  - 
    center: 
      x: -2.947456476821284
      y: -0.6287614446886856
      z: 0.0
    velocity: 
      x: 0.0
      y: 0.0
      z: 0.0
    radius: 0.2553589906947199
    true_radius: 0.1553589906947199
  - 
    center: 
      x: -0.37032332198522305
      y: -0.20456678531170358
      z: 0.0
    velocity: 
      x: 0.0
      y: 0.0
      z: 0.0
    radius: 0.18268948039853017
    true_radius: 0.08268948039853016
  - 
    center: 
      x: -0.5123184413953833
      y: -0.5838683660450149
      z: 0.0
    velocity: 
      x: 0.0
      y: 0.0
      z: 0.0
    radius: 0.28747904901365057
    true_radius: 0.18747904901365056
  - 
    center: 
      x: -0.5420963346563085
      y: -1.5177707466159358
      z: 0.0
    velocity: 
      x: 0.0
      y: 0.0
      z: 0.0
    radius: 0.2436543386709912
    true_radius: 0.1436543386709912
  - 
    center: 
      x: 0.14189821593848823
      y: 0.08506295470511208
      z: 0.0
    velocity: 
      x: 0.0
      y: 0.0
      z: 0.0
    radius: 0.2413462247564831
    true_radius: 0.1413462247564831
  - 
    center: 
      x: -0.8103394544630452
      y: 0.2695716342560985
      z: 0.0
    velocity: 
      x: 0.0
      y: 0.0
      z: 0.0
    radius: 0.28073036585281586
    true_radius: 0.18073036585281585
---
header: 
  seq: 2002
  stamp: 
    secs: 1692428649
    nsecs: 131229000
  frame_id: "laser_frame"
segments: []
circles: 
  - 
    center: 
      x: -2.9470134045447174
      y: -0.6264176379764682
      z: 0.0
    velocity: 
      x: 0.0
      y: 0.0
      z: 0.0
    radius: 0.25599402863396103
    true_radius: 0.15599402863396103
  - 
    center: 
      x: -0.37031100802213923
      y: -0.2056442247661192
      z: 0.0
    velocity: 
      x: 0.0
      y: 0.0
      z: 0.0
    radius: 0.18606888872460525
    true_radius: 0.08606888872460525
  - 
    center: 
      x: -0.5146511545947163
      y: -0.5791069184711061
      z: 0.0
    velocity: 
      x: 0.0
      y: 0.0
      z: 0.0
    radius: 0.28366054466643076
    true_radius: 0.18366054466643075
  - 
    center: 
      x: -0.5472278057494582
      y: -1.521292271401831
      z: 0.0
    velocity: 
      x: 0.0
      y: 0.0
      z: 0.0
    radius: 0.24570917311618648
    true_radius: 0.14570917311618647
  - 
    center: 
      x: 0.0854474787659854
      y: -0.11755814478730642
      z: 0.0
    velocity: 
      x: 0.0
      y: 0.0
      z: 0.0
    radius: 0.13851391852546852
    true_radius: 0.03851391852546851
  - 
    center: 
      x: 0.023551309828140937
      y: 0.16510079997298047
      z: 0.0
    velocity: 
      x: 0.0
      y: 0.0
      z: 0.0
    radius: 0.19929623604567548
    true_radius: 0.09929623604567547
  - 
    center: 
      x: -0.8239198641952964
      y: 0.2909092227313037
      z: 0.0
    velocity: 
      x: 0.0
      y: 0.0
      z: 0.0
    radius: 0.32206222470720514
    true_radius: 0.22206222470720513
---
header: 
  seq: 2003
  stamp: 
    secs: 1692428649
    nsecs: 230429000
  frame_id: "laser_frame"
segments: []
circles: 
  - 
    center: 
      x: -2.9419099417847185
      y: -0.6227428171587988
      z: 0.0
    velocity: 
      x: 0.0
      y: 0.0
      z: 0.0
    radius: 0.2573873595163787
    true_radius: 0.1573873595163787
  - 
    center: 
      x: -0.3719234611438999
      y: -0.2057570995363805
      z: 0.0
    velocity: 
      x: 0.0
      y: 0.0
      z: 0.0
    radius: 0.18695792673072437
    true_radius: 0.08695792673072436
  - 
    center: 
      x: -0.5174804238157681
      y: -0.5794292726875282
      z: 0.0
    velocity: 
      x: 0.0
      y: 0.0
      z: 0.0
    radius: 0.29066725826955425
    true_radius: 0.19066725826955425
  - 
    center: 
      x: -0.5540801516248259
      y: -1.5101271188600611
      z: 0.0
    velocity: 
      x: 0.0
      y: 0.0
      z: 0.0
    radius: 0.2403547092400026
    true_radius: 0.1403547092400026
  - 
    center: 
      x: 0.1416403525732772
      y: 0.0600409815397375
      z: 0.0
    velocity: 
      x: 0.0
      y: 0.0
      z: 0.0
    radius: 0.24828001695283775
    true_radius: 0.14828001695283774
  - 
    center: 
      x: -0.8188857900897734
      y: 0.2957510357531253
      z: 0.0
    velocity: 
      x: 0.0
      y: 0.0
      z: 0.0
    radius: 0.3170739405595877
    true_radius: 0.2170739405595877
---
header: 
  seq: 2004
  stamp: 
    secs: 1692428649
    nsecs: 329429000
  frame_id: "laser_frame"
segments: []
circles: 
  - 
    center: 
      x: -2.956549441918207
      y: -0.6095028208237199
      z: 0.0
    velocity: 
      x: 0.0
      y: 0.0
      z: 0.0
    radius: 0.27650164074073513
    true_radius: 0.17650164074073513
  - 
    center: 
      x: -0.36221450618439366
      y: -0.2033933369802925
      z: 0.0
    velocity: 
      x: 0.0
      y: 0.0
      z: 0.0
    radius: 0.17527226354204858
    true_radius: 0.07527226354204858
  - 
    center: 
      x: -0.5143120658460417
      y: -0.5788232271875979
      z: 0.0
    velocity: 
      x: 0.0
      y: 0.0
      z: 0.0
    radius: 0.2838858312376595
    true_radius: 0.18388583123765948
  - 
    center: 
      x: -0.5318701677172145
      y: -1.5391887259778114
      z: 0.0
    velocity: 
      x: 0.0
      y: 0.0
      z: 0.0
    radius: 0.2639658115075479
    true_radius: 0.16396581150754788
  - 
    center: 
      x: 0.09055192812632289
      y: -0.11911920340034957
      z: 0.0
    velocity: 
      x: 0.0
      y: 0.0
      z: 0.0
    radius: 0.14206823288781223
    true_radius: 0.042068232887812224
  - 
    center: 
      x: 0.030804303091910474
      y: 0.16739876696042738
      z: 0.0
    velocity: 
      x: 0.0
      y: 0.0
      z: 0.0
    radius: 0.18973168236917387
    true_radius: 0.08973168236917387
  - 
    center: 
      x: -0.8251816076562124
      y: 0.3054958885878771
      z: 0.0
    velocity: 
      x: 0.0
      y: 0.0
      z: 0.0
    radius: 0.3188649994956523
    true_radius: 0.21886499949565227
---
header: 
  seq: 2005
  stamp: 
    secs: 1692428649
    nsecs: 428629000
  frame_id: "laser_frame"
segments: []
circles: 
  - 
    center: 
      x: -2.9476810997271725
      y: -0.6271980701413393
      z: 0.0
    velocity: 
      x: 0.0
      y: 0.0
      z: 0.0
    radius: 0.2554217605158853
    true_radius: 0.15542176051588527
  - 
    center: 
      x: -0.37108219223706296
      y: -0.20304517691246143
      z: 0.0
    velocity: 
      x: 0.0
      y: 0.0
      z: 0.0
    radius: 0.181302368423241
    true_radius: 0.08130236842324098
  - 
    center: 
      x: -0.5129732881861919
      y: -0.583658993666149
