header: 
  seq: 570
  stamp: 
    secs: 1692428623
    nsecs: 838883000
  frame_id: "laser_frame"
segments: 
  - 
    first_point: 
      x: -2.858151576543318
      y: -0.539478066986523
      z: 0.0
    last_point: 
      x: -2.8777921935330393
      y: -0.7689471310863857
      z: 0.0
  - 
    first_point: 
      x: -0.41315865003513774
      y: -0.12470917917211688
      z: 0.0
    last_point: 
      x: -0.2960062326869337
      y: -0.23179225199937548
      z: 0.0
  - 
    first_point: 
      x: -0.45900255811136137
      y: -0.4064126109709354
      z: 0.0
    last_point: 
      x: -0.37979597336224435
      y: -0.725710679624695
      z: 0.0
  - 
    first_point: 
      x: -0.5932493198284583
      y: -1.4120617491900251
      z: 0.0
    last_point: 
      x: -0.3684502935917978
      y: -1.5257298436630444
      z: 0.0
  - 
    first_point: 
      x: 0.10797855501364838
      y: 0.11719030555244579
      z: 0.0
    last_point: 
      x: -0.0666955787772788
      y: 0.11544681722895858
      z: 0.0
  - 
    first_point: 
      x: -0.7383940020254566
      y: 0.5053818674150818
      z: 0.0
    last_point: 
      x: -0.7536428228275749
      y: 0.1462653061331724
      z: 0.0
  - 
    first_point: 
      x: -6.34409778631698
      y: 0.31650151794648884
      z: 0.0
    last_point: 
      x: -6.361152600122139
      y: -0.0005825871332451468
      z: 0.0
circles: 
  - 
    center: 
      x: 0.08197241205691498
      y: -0.11609633798674449
      z: 0.0
    velocity: 
      x: 0.0
      y: 0.0
      z: 0.0
    radius: 0.1348522869792367
    true_radius: 0.0348522869792367
---
header: 
  seq: 571
  stamp: 
    secs: 1692428623
    nsecs: 938083000
  frame_id: "laser_frame"
segments: 
  - 
    first_point: 
      x: -2.8607783052333393
      y: -0.4651835747042996
      z: 0.0
    last_point: 
      x: -2.87797084604994
      y: -0.7694276616346785
      z: 0.0
  - 
    first_point: 
      x: -0.3945753932709758
      y: -0.13033539421297743
      z: 0.0
    last_point: 
      x: -0.29724394885656363
      y: -0.23534303120439135
      z: 0.0
  - 
    first_point: 
      x: -0.45444878256362153
      y: -0.4128270844649115
      z: 0.0
    last_point: 
      x: -0.3879747234467046
      y: -0.7200982395679703
      z: 0.0
  - 
    first_point: 
      x: -0.5926714306689086
      y: -1.413362352442353
      z: 0.0
    last_point: 
      x: -0.3658056520896798
      y: -1.5352260657297516
      z: 0.0
  - 
    first_point: 
      x: 0.09873565845760174
      y: 0.13317681315746913
      z: 0.0
    last_point: 
      x: -0.06829065402466043
      y: 0.11249450594329768
      z: 0.0
  - 
    first_point: 
      x: -0.7396292190069148
      y: 0.5054452584245164
      z: 0.0
    last_point: 
      x: -0.755230963297597
      y: 0.1396385439742912
      z: 0.0
circles: 
  - 
    center: 
      x: 0.09190071212005566
      y: -0.12052216751014985
      z: 0.0
    velocity: 
      x: 0.0
      y: 0.0
      z: 0.0
    radius: 0.14456672467173096
    true_radius: 0.04456672467173095
---
header: 
  seq: 572
  stamp: 
    secs: 1692428624
    nsecs:  37283000
  frame_id: "laser_frame"
segments: 
  - 
    first_point: 
      x: -2.8457897028805452
      y: -0.499979008560455
      z: 0.0
    last_point: 
      x: -2.8854385821660924
      y: -0.7702566263360551
      z: 0.0
  - 
    first_point: 
      x: -0.39467337733746494
      y: -0.13049256517898158
      z: 0.0
    last_point: 
      x: -0.29756596281795267
      y: -0.23557874106098448
      z: 0.0
  - 
    first_point: 
      x: -0.4604310065193896
      y: -0.4067578989373771
      z: 0.0
    last_point: 
      x: -0.37695740709668807
      y: -0.7262121834285739
      z: 0.0
  - 
    first_point: 
      x: -0.5961922700668622
      y: -1.4167659335588936
      z: 0.0
    last_point: 
      x: -0.3863284736125533
      y: -1.5151611290263558
      z: 0.0
  - 
    first_point: 
      x: 0.10579579884620645
      y: 0.1170168156739112
      z: 0.0
    last_point: 
      x: -0.06672408190388086
      y: 0.11509320442771868
      z: 0.0
  - 
    first_point: 
      x: -0.7402499519350404
      y: 0.5073514127757907
      z: 0.0
    last_point: 
      x: -0.7572637944343159
      y: 0.1392499034364892
      z: 0.0
circles: 
  - 
    center: 
      x: -6.369747943618684
      y: -0.34848926518121726
      z: 0.0
    velocity: 
      x: 0.0
      y: 0.0
      z: 0.0
    radius: 0.12618964343075587
    true_radius: 0.02618964343075586
  - 
    center: 
      x: 0.08576975069542937
      y: -0.11693425623561654
      z: 0.0
    velocity: 
      x: 0.0
      y: 0.0
      z: 0.0
    radius: 0.1372937285465692
    true_radius: 0.037293728546569205
---
header: 
  seq: 573
  stamp: 
    secs: 1692428624
    nsecs: 136483000
  frame_id: "laser_frame"
segments: 
  - 
    first_point: 
      x: -2.8477008432675155
      y: -0.46542909442564584
      z: 0.0
    last_point: 
      x: -2.8875783738921554
      y: -0.6952310372042415
      z: 0.0
  - 
    first_point: 
      x: -0.4345804148963462
      y: -0.11122570472544197
      z: 0.0
    last_point: 
      x: -0.2951274620918436
      y: -0.22953927755055548
      z: 0.0
  - 
    first_point: 
      x: -0.4569571935501921
      y: -0.4059982429406007
      z: 0.0
    last_point: 
      x: -0.38609081248263694
      y: -0.7199883623807662
      z: 0.0
  - 
    first_point: 
      x: -0.5968376782925036
      y: -1.4178194062870921
      z: 0.0
    last_point: 
      x: -0.36730349758893294
      y: -1.5223576057803094
      z: 0.0
  - 
    first_point: 
      x: 0.0963436667835934
      y: 0.12751055785542856
      z: 0.0
    last_point: 
      x: -0.051174205214946485
      y: 0.1226128208992583
      z: 0.0
  - 
    first_point: 
      x: -0.7408132487115702
      y: 0.5074806069073338
      z: 0.0
    last_point: 
      x: -0.7548744514212755
      y: 0.13878240373151934
      z: 0.0
circles: 
  - 
    center: 
      x: 0.0905200336276008
      y: -0.11929185982518684
      z: 0.0
    velocity: 
      x: 0.0
      y: 0.0
      z: 0.0
    radius: 0.14204524159416326
    true_radius: 0.04204524159416326
---
header: 
  seq: 574
  stamp: 
    secs: 1692428624
    nsecs: 235683000
  frame_id: "laser_frame"
segments: 
  - 
    first_point: 
      x: -2.858092278955849
      y: -0.46633632927228613
      z: 0.0
    last_point: 
      x: -2.8815935886317807
      y: -0.76869960714468
      z: 0.0
  - 
    first_point: 
      x: -0.4047698192987643
      y: -0.12893588837885847
      z: 0.0
    last_point: 
      x: -0.30082414016187536
      y: -0.2242497841597905
      z: 0.0
  - 
    first_point: 
      x: -0.45995779259827324
      y: -0.4061686876170767
      z: 0.0
    last_point: 
      x: -0.37652175695196455
      y: -0.7260831947875388
      z: 0.0
  - 
    first_point: 
      x: -0.6175091520896618
      y: -1.415669162211929
      z: 0.0
    last_point: 
      x: -0.3680188159315228
      y: -1.5261586394399989
      z: 0.0
  - 
    first_point: 
      x: 0.1058631104062923
      y: 0.11664176892710937
      z: 0.0
    last_point: 
      x: -0.06659685481111054
      y: 0.11553725586436983
      z: 0.0
  - 
    first_point: 
      x: -0.7480516135591909
      y: 0.4909097684905345
      z: 0.0
    last_point: 
      x: -0.7510735824168907
      y: 0.13777985396165834
      z: 0.0
circles: 
  - 
    center: 
      x: 0.09034581997751892
      y: -0.11905221590922246
      z: 0.0
    velocity: 
      x: 0.0
      y: 0.0
      z: 0.0
    radius: 0.14177211320358443
    true_radius: 0.04177211320358443
---
header: 
  seq: 575
  stamp: 
    secs: 1692428624
    nsecs: 334883000
  frame_id: "laser_frame"
segments: 
  - 
    first_point: 
      x: -2.8629480305544717
      y: -0.5022470671525643
      z: 0.0
    last_point: 
      x: -2.8846882587377447
      y: -0.7690853670998812
      z: 0.0
  - 
    first_point: 
      x: -0.4042121538430417
      y: -0.1279927357526651
      z: 0.0
    last_point: 
      x: -0.29922355555336944
      y: -0.22930434852564555
      z: 0.0
  - 
    first_point: 
      x: -0.4613983905582908
      y: -0.4065418219149308
      z: 0.0
    last_point: 
      x: -0.378731689775604
      y: -0.7265771672718042
      z: 0.0
  - 
    first_point: 
      x: -0.6169364382344052
      y: -1.4128711312088136
      z: 0.0
    last_point: 
      x: -0.35028649193586947
      y: -1.5236466019525337
      z: 0.0
  - 
    first_point: 
      x: 0.15647358857666469
      y: -0.048117221148752685
      z: 0.0
    last_point: 
      x: 0.011877072400146797
      y: 0.14600489878911582
      z: 0.0
  - 
    first_point: 
      x: -0.7275024016656232
      y: 0.5120011134764921
      z: 0.0
    last_point: 
      x: -0.7658386895266869
      y: 0.15795068793980357
      z: 0.0
  - 
    first_point: 
      x: -6.37643833154319
      y: 0.48319949003797047
      z: 0.0
    last_point: 
      x: -6.34014653372576
      y: 0.002102007293315709
      z: 0.0
circles: []
---
header: 
  seq: 576
  stamp: 
    secs: 1692428624
    nsecs: 434083000
  frame_id: "laser_frame"
segments: 
  - 
    first_point: 
      x: -2.8502523549148733
      y: -0.46512937901323914
      z: 0.0
    last_point: 
      x: -2.8889348321364805
      y: -0.7703339876383375
      z: 0.0
  - 
    first_point: 
      x: -0.40498201574257864
      y: -0.1279979257097682
      z: 0.0
    last_point: 
      x: -0.2993908009943037
      y: -0.229175986309905
      z: 0.0
  - 
    first_point: 
      x: -0.4594493917171523
      y: -0.4140028375095188
      z: 0.0
    last_point: 
      x: -0.38106920202770916
      y: -0.7261353016645193
      z: 0.0
  - 
    first_point: 
      x: -0.6127289381370761
      y: -1.4070804270376729
      z: 0.0
    last_point: 
      x: -0.3711620081782909
      y: -1.5219014652163676
      z: 0.0
  - 
    first_point: 
      x: 0.10377330367068589
      y: 0.12121473110849894
      z: 0.0
    last_point: 
      x: -0.04794494755313936
      y: 0.12573579791836073
      z: 0.0
  - 
    first_point: 
      x: -0.74583354453724
      y: 0.4919599629467966
      z: 0.0
    last_point: 
      x: -0.7578680338208618
      y: 0.1383167990153531
      z: 0.0
  - 
    first_point: 
      x: -6.403388715392242
      y: 0.48313874750982694
      z: 0.0
    last_point: 
      x: -6.359146925822406
      y: 0.0017334707914111538
      z: 0.0
circles: 
  - 
    center: 
      x: -6.35869667001529
      y: -0.26911065496847913
      z: 0.0
    velocity: 
      x: 0.0
      y: 0.0
      z: 0.0
    radius: 0.12511821399707174
    true_radius: 0.02511821399707173
  - 
    center: 
      x: 0.08685807499198195
      y: -0.11712594025769235
      z: 0.0
    velocity: 
      x: 0.0
      y: 0.0
      z: 0.0
    radius: 0.13808535150252121
    true_radius: 0.03808535150252121
---
header: 
  seq: 577
  stamp: 
    secs: 1692428624
    nsecs: 533283000
  frame_id: "laser_frame"
segments: 
  - 
    first_point: 
      x: -2.8519685954719804
      y: -0.46454642121299694
      z: 0.0
    last_point: 
      x: -2.8811526150581557
      y: -0.7685611387717705
      z: 0.0
  - 
    first_point: 
      x: -0.40668908623682065
      y: -0.128016086393691
      z: 0.0
    last_point: 
      x: -0.29915822418629495
      y: -0.2288543378533276
      z: 0.0
  - 
    first_point: 
      x: -0.4619025838242899
      y: -0.4066803327373222
      z: 0.0
    last_point: 
      x: -0.3777762744220116
      y: -0.7257159766914736
      z: 0.0
  - 
    first_point: 
      x: -0.6099175215863135
      y: -1.40485697427944
      z: 0.0
    last_point: 
      x: -0.3476641607563844
      y: -1.5392244210950965
      z: 0.0
  - 
    first_point: 
      x: 0.11165978070305767
      y: 0.11409117916552247
      z: 0.0
    last_point: 
      x: -0.06575045049751486
      y: 0.11800048443696172
      z: 0.0
  - 
    first_point: 
      x: -0.7390262743259856
      y: 0.49258207181479463
      z: 0.0
    last_point: 
      x: -0.7563007024087729
      y: 0.13858577915915418
      z: 0.0
  - 
    first_point: 
      x: -6.398970878166988
      y: 0.48346723344358017
      z: 0.0
    last_point: 
      x: -6.349340883036488
      y: 0.003898172269428504
      z: 0.0
circles: 
  - 
    center: 
      x: -6.372027094948246
      y: -0.27212302738576066
      z: 0.0
    velocity: 
      x: 0.0
      y: 0.0
      z: 0.0
    radius: 0.13195810842675718
    true_radius: 0.03195810842675717
  - 
    center: 
      x: 0.08430334536219718
      y: -0.11732824734995574
      z: 0.0
    velocity: 
      x: 0.0
      y: 0.0
      z: 0.0
    radius: 0.137039497279607
    true_radius: 0.03703949727960698
---
header: 
  seq: 578
  stamp: 
    secs: 1692428624
    nsecs: 632483000
  frame_id: "laser_frame"
segments: 
  - 
    first_point: 
      x: -2.8472810769039714
      y: -0.46488405456665544
      z: 0.0
    last_point: 
      x: -2.8875273399768346
      y: -0.7322442936360865
      z: 0.0
  - 
    first_point: 
      x: -0.45911054791158173
      y: -0.40646609717179333
      z: 0.0
    last_point: 
      x: -0.38547779167164004
      y: -0.7201323771583964
      z: 0.0
  - 
    first_point: 
      x: -0.6107532759043056
      y: -1.4038364366854796
      z: 0.0
    last_point: 
      x: -0.36578035468579856
      y: -1.5216588235865431
      z: 0.0
  - 
    first_point: 
      x: 0.10750153278940867
      y: 0.11734358625720603
      z: 0.0
    last_point: 
      x: -0.04918713094803914
      y: 0.12710049221992328
      z: 0.0
  - 
    first_point: 
      x: -0.7374226944934257
      y: 0.5035022204690802
      z: 0.0
    last_point: 
      x: -0.762405404559812
      y: 0.13323566134604198
      z: 0.0
  - 
    first_point: 
      x: -6.422977475614854
      y: 0.4817179939559581
      z: 0.0
    last_point: 
      x: -6.367527569774231
      y: 0.0004008851776054381
      z: 0.0
circles: 
  - 
    center: 
      x: -0.3688279421146392
      y: -0.2091116792755983
      z: 0.0
    velocity: 
      x: 0.0
      y: 0.0
      z: 0.0
    radius: 0.1721681129767883
    true_radius: 0.0721681129767883
  - 
    center: 
      x: 0.08750355109091228
      y: -0.11878708113015063
      z: 0.0
    velocity: 
      x: 0.0
      y: 0.0
      z: 0.0
    radius: 0.14006482508060372
    true_radius: 0.040064825080603717
---
header: 
  seq: 579
  stamp: 
    secs: 1692428624
    nsecs: 731683000
  frame_id: "laser_frame"
segments: 
  - 
    first_point: 
      x: -2.847883151487002
      y: -0.465428332595677
      z: 0.0
    last_point: 
      x: -2.8869969665631703
      y: -0.769415691235262
      z: 0.0
  - 
    first_point: 
      x: -0.40798684691935044
      y: -0.1289501840271815
      z: 0.0
    last_point: 
      x: -0.3008066931184367
      y: -0.2238022902234561
      z: 0.0
  - 
    first_point: 
      x: -0.4607097265357963
      y: -0.4063640834521078
      z: 0.0
    last_point: 
      x: -0.3781029530563056
      y: -0.7256398478680455
      z: 0.0
  - 
    first_point: 
      x: -0.6098054945310643
      y: -1.4035582651285563
      z: 0.0
    last_point: 
      x: -0.38578854186046
      y: -1.5163160247797358
      z: 0.0
  - 
    first_point: 
      x: 0.1064904556603389
      y: 0.11726108184867087
      z: 0.0
    last_point: 
      x: -0.06847905422890549
      y: 0.11496252315392101
      z: 0.0
  - 
    first_point: 
      x: -0.7450546656378542
      y: 0.5020196364317758
      z: 0.0
    last_point: 
      x: -0.7589699465568156
      y: 0.13834922488048415
      z: 0.0
  - 
    first_point: 
      x: -6.414972941007194
      y: 0.48213816880785515
      z: 0.0
    last_point: 
      x: -6.376188374449765
      y: 0.0006300663510174488
      z: 0.0
circles: 
  - 
    center: 
      x: -6.363166939669766
      y: -0.2726979687526543
      z: 0.0
    velocity: 
      x: 0.0
      y: 0.0
      z: 0.0
    radius: 0.1330996953468778
    true_radius: 0.03309969534687779
  - 
    center: 
      x: 0.08745882416807177
      y: -0.11862189232511071
      z: 0.0
    velocity: 
      x: 0.0
      y: 0.0
      z: 0.0
    radius: 0.14007322612164547
    true_radius: 0.04007322612164546
---
header: 
  seq: 580
  stamp: 
    secs: 1692428624
    nsecs: 830883000
  frame_id: "laser_frame"
segments: 
  - 
    first_point: 
      x: -2.857729738757648
      y: -0.5397989456684548
      z: 0.0
    last_point: 
      x: -2.876405112953493
      y: -0.7697609525615988
      z: 0.0
  - 
    first_point: 
      x: -0.4121699445371681
      y: -0.12310406481801128
      z: 0.0
    last_point: 
      x: -0.2997039288318552
      y: -0.22878265386525706
      z: 0.0
  - 
    first_point: 
      x: -0.45821951890419493
      y: -0.406315022288437
      z: 0.0
    last_point: 
      x: -0.39090250809017146
      y: -0.7198713536263949
      z: 0.0
  - 
    first_point: 
      x: -0.5928984590084557
      y: -1.409708041667995
      z: 0.0
    last_point: 
      x: -0.35052403871755267
      y: -1.5235927398266749
      z: 0.0
  - 
    first_point: 
      x: 0.15397995494253602
      y: -0.05160514207012586
      z: 0.0
    last_point: 
      x: 0.014473333753301645
      y: 0.1450647170556286
      z: 0.0
  - 
    first_point: 
      x: -0.7408791895425486
      y: 0.5039195202432162
      z: 0.0
    last_point: 
      x: -0.768228394393771
      y: 0.15597506410038223
      z: 0.0
  - 
    first_point: 
      x: -6.39266868917632
      y: 0.48052978800992713
      z: 0.0
    last_point: 
      x: -6.376039681707982
      y: 0.00020721669748075198
      z: 0.0
circles: []
---
header: 
  seq: 581
  stamp: 
    secs: 1692428624
    nsecs: 930083000
  frame_id: "laser_frame"
segments: 
  - 
    first_point: 
      x: -2.8579980882297593
      y: -0.4640942750674307
      z: 0.0
    last_point: 
      x: -2.890604916867646
      y: -0.7688947038788536
      z: 0.0
  - 
    first_point: 
      x: -0.39482192566247093
      y: -0.13120479822821912
      z: 0.0
    last_point: 
      x: -0.2986676877108228
      y: -0.23002753665891754
      z: 0.0
  - 
    first_point: 
      x: -0.4570958715790178
      y: -0.38411601677463947
      z: 0.0
    last_point: 
      x: -0.3962131622204269
      y: -0.7136422046712058
      z: 0.0
  - 
    first_point: 
      x: -0.6108166608267552
      y: -1.4029134144805384
      z: 0.0
    last_point: 
      x: -0.3683115611028368
      y: -1.5224852126382182
      z: 0.0
  - 
    first_point: 
      x: 0.12926704287359214
      y: -0.07006849264071727
      z: 0.0
    last_point: 
      x: 0.013115182601539722
      y: 0.14591365065626635
      z: 0.0
  - 
    first_point: 
      x: -0.7417334825251225
      y: 0.5079293379293615
      z: 0.0
    last_point: 
      x: -0.754822026761225
      y: 0.1390113959372734
      z: 0.0
circles: []
---
header: 
  seq: 582
  stamp: 
    secs: 1692428625
    nsecs:  29283000
  frame_id: "laser_frame"
segments: 
  - 
    first_point: 
      x: -2.8488613017644564
      y: -0.4645268826689586
      z: 0.0
    last_point: 
      x: -2.8822371277143266
      y: -0.7697740972095812
      z: 0.0
  - 
    first_point: 
      x: -0.41384601025098255
      y: -0.12401866473883459
      z: 0.0
    last_point: 
      x: -0.2960345910389866
      y: -0.23157091725830434
      z: 0.0
  - 
    first_point: 
      x: -0.4598300617713104
      y: -0.40663069409884683
      z: 0.0
    last_point: 
      x: -0.3853552950808949
      y: -0.7194182454615832
      z: 0.0
  - 
    first_point: 
      x: -0.5872962415996079
      y: -1.4034453793549064
      z: 0.0
    last_point: 
      x: -0.3867731618896936
      y: -1.5155638543759404
      z: 0.0
  - 
    first_point: 
      x: 0.1058516957337227
      y: 0.11619410650988346
      z: 0.0
    last_point: 
      x: -0.0666229933748486
      y: 0.1148978834220849
      z: 0.0
  - 
    first_point: 
      x: -0.7404011603897346
      y: 0.5069463410525852
      z: 0.0
    last_point: 
      x: -0.7582980910258963
      y: 0.13978553877257335
      z: 0.0
circles: 
  - 
    center: 
      x: 0.08590437120743846
      y: -0.11730602056549752
      z: 0.0
    velocity: 
      x: 0.0
      y: 0.0
      z: 0.0
    radius: 0.13729485963008126
    true_radius: 0.03729485963008125
---
header: 
  seq: 583
  stamp: 
    secs: 1692428625
    nsecs: 128483000
  frame_id: "laser_frame"
segments: 
  - 
    first_point: 
      x: -2.850944949209654
      y: -0.4645886423845988
      z: 0.0
    last_point: 
      x: -2.8881523409948096
      y: -0.6944051063471368
      z: 0.0
  - 
    first_point: 
      x: -0.41191417421230475
      y: -0.12304791784482581
      z: 0.0
    last_point: 
      x: -0.296298284045277
      y: -0.23243087211709285
      z: 0.0
  - 
    first_point: 
      x: -0.4588738107679582
      y: -0.4064328752726001
      z: 0.0
    last_point: 
      x: -0.3884592382550614
      y: -0.7196960814453683
      z: 0.0
  - 
    first_point: 
      x: -0.6067639479972801
      y: -1.3958169755006289
      z: 0.0
    last_point: 
      x: -0.3673024155076994
      y: -1.5178455120232563
      z: 0.0
  - 
    first_point: 
      x: 0.10256349509596474
      y: 0.13225839906783246
      z: 0.0
    last_point: 
      x: -0.06928141265868237
      y: 0.11214513566820877
      z: 0.0
  - 
    first_point: 
      x: -0.7399775367292597
      y: 0.5092881072982169
      z: 0.0
    last_point: 
      x: -0.7586012010728885
      y: 0.14715753401043719
      z: 0.0
circles: 
  - 
    center: 
      x: 0.09056830105788072
      y: -0.11950734928435297
      z: 0.0
    velocity: 
      x: 0.0
      y: 0.0
      z: 0.0
    radius: 0.14204075602171834
    true_radius: 0.042040756021718334
---
header: 
  seq: 584
  stamp: 
    secs: 1692428625
    nsecs: 227683000
  frame_id: "laser_frame"
segments: 
  - 
    first_point: 
      x: -2.8559305071823227
      y: -0.465408643935412
      z: 0.0
    last_point: 
      x: -2.887174840174146
      y: -0.7700286724740566
      z: 0.0
  - 
    first_point: 
      x: -0.40639912791402993
      y: -0.12893378365189437
      z: 0.0
    last_point: 
      x: -0.30073733757818594
      y: -0.2239157301652419
      z: 0.0
  - 
    first_point: 
      x: -0.4592424572822808
      y: -0.40649482382831414
      z: 0.0
    last_point: 
      x: -0.3855990078476153
      y: -0.7186173325126959
      z: 0.0
  - 
    first_point: 
      x: -0.6091406754983418
      y: -1.401960739354065
      z: 0.0
    last_point: 
      x: -0.38677396310267825
      y: -1.5158259492160078
      z: 0.0
  - 
    first_point: 
      x: 0.10937840726005144
      y: 0.11607943395522113
      z: 0.0
    last_point: 
      x: -0.06647331778161068
      y: 0.11573561533390364
      z: 0.0
  - 
    first_point: 
      x: -0.7482271849269825
      y: 0.48968453475944945
      z: 0.0
    last_point: 
      x: -0.75085660779185
      y: 0.13810949199495848
      z: 0.0
circles: 
  - 
    center: 
      x: -6.385994021198402
      y: -0.27617412784632156
      z: 0.0
    velocity: 
      x: 0.0
      y: 0.0
      z: 0.0
    radius: 0.13924000432913786
    true_radius: 0.03924000432913785
  - 
    center: 
      x: 0.09025075887445971
      y: -0.11908990054639701
      z: 0.0
    velocity: 
      x: 0.0
      y: 0.0
      z: 0.0
    radius: 0.14174285938255404
    true_radius: 0.04174285938255404
---
header: 
  seq: 585
  stamp: 
    secs: 1692428625
    nsecs: 326883000
  frame_id: "laser_frame"
segments: 
  - 
    first_point: 
      x: -2.852725005321283
      y: -0.5003095908652023
      z: 0.0
    last_point: 
      x: -2.8898788972484017
      y: -0.7697055271781985
      z: 0.0
  - 
    first_point: 
      x: -0.4093391141384201
      y: -0.12796452237168823
      z: 0.0
    last_point: 
      x: -0.29855035512604855
      y: -0.22790604968407188
      z: 0.0
  - 
    first_point: 
      x: -0.46162028985450854
      y: -0.4056778394080115
      z: 0.0
    last_point: 
      x: -0.3772748540455956
      y: -0.7255827511870921
      z: 0.0
  - 
    first_point: 
      x: -0.6124704050604163
      y: -1.4061845834322741
      z: 0.0
    last_point: 
      x: -0.36457327908018
      y: -1.5206298385666235
      z: 0.0
  - 
    first_point: 
      x: 0.15292533049315402
      y: -0.06029735366098205
      z: 0.0
    last_point: 
      x: 0.01809005598073068
      y: 0.14357584725622327
      z: 0.0
  - 
    first_point: 
      x: -0.7412918949913627
      y: 0.5017307859307545
      z: 0.0
    last_point: 
      x: -0.7571750417194825
      y: 0.14604348432471168
      z: 0.0
  - 
    first_point: 
      x: -6.396262540591516
      y: 0.48324798299640576
      z: 0.0
    last_point: 
      x: -6.361836015166427
      y: 0.0016567616739533474
      z: 0.0
circles: []
---
header: 
  seq: 586
  stamp: 
    secs: 1692428625
    nsecs: 426083000
  frame_id: "laser_frame"
segments: 
  - 
    first_point: 
      x: -2.847839950561508
      y: -0.5004363828405539
      z: 0.0
    last_point: 
      x: -2.8815233508286586
      y: -0.7693775511786833
      z: 0.0
  - 
    first_point: 
      x: -0.41298007161833583
      y: -0.12605467622477726
      z: 0.0
    last_point: 
      x: -0.2973926063260814
      y: -0.22665621878076225
      z: 0.0
  - 
    first_point: 
      x: -0.46123236025497766
      y: -0.40696673706736064
      z: 0.0
    last_point: 
      x: -0.3796014574872687
      y: -0.7251629768213654
      z: 0.0
  - 
    first_point: 
      x: -0.5897358601773215
      y: -1.4064345187160145
      z: 0.0
    last_point: 
      x: -0.36682265396240066
      y: -1.5287074610723534
      z: 0.0
  - 
    first_point: 
      x: 0.13189992636465364
      y: -0.07073603850215524
      z: 0.0
    last_point: 
      x: 0.017769712240294697
      y: 0.14674783790991808
      z: 0.0
  - 
    first_point: 
      x: -0.7377130639131688
      y: 0.5043857615202476
      z: 0.0
    last_point: 
      x: -0.761446947113443
      y: 0.13269160113729006
      z: 0.0
  - 
    first_point: 
      x: -6.39227536060075
      y: 0.4797067877999612
      z: 0.0
    last_point: 
      x: -6.3868391108908344
      y: 5.936488417106325e-05
      z: 0.0
circles: []
---
header: 
  seq: 587
  stamp: 
    secs: 1692428625
    nsecs: 525083000
  frame_id: "laser_frame"
segments: 
  - 
    first_point: 
      x: -4.193129072962105
      y: -0.41182619476152993
      z: 0.0
    last_point: 
      x: -4.119058219712141
      y: -0.6172333707330205
      z: 0.0
  - 
    first_point: 
      x: -2.8499208154350213
      y: -0.4657653618234781
      z: 0.0
    last_point: 
      x: -2.8798644382734273
      y: -0.7690165377860281
      z: 0.0
  - 
    first_point: 
      x: -0.4153256466854591
      y: -0.12363572830167155
      z: 0.0
    last_point: 
      x: -0.29540454102979224
      y: -0.23104731727789052
      z: 0.0
  - 
    first_point: 
      x: -0.4575858377927984
      y: -0.4056698488156205
      z: 0.0
    last_point: 
      x: -0.3893993536542601
      y: -0.7188577658960835
      z: 0.0
  - 
    first_point: 
      x: -0.5931442052953485
      y: -1.4120118444530216
      z: 0.0
    last_point: 
      x: -0.36989750410861655
      y: -1.5236049304292838
      z: 0.0
  - 
    first_point: 
      x: 0.10408017113322211
      y: 0.13534801135920374
      z: 0.0
    last_point: 
      x: -0.06968549045678776
      y: 0.11202148212737016
      z: 0.0
  - 
    first_point: 
      x: -0.7420179290235487
      y: 0.5050770844385639
      z: 0.0
    last_point: 
      x: -0.754532205711876
      y: 0.14633537654678128
      z: 0.0
circles: 
  - 
    center: 
      x: 0.0917285731109988
      y: -0.11957532338029522
      z: 0.0
    velocity: 
      x: 0.0
      y: 0.0
      z: 0.0
    radius: 0.1433810936184312
    true_radius: 0.043381093618431205
---
header: 
  seq: 588
  stamp: 
    secs: 1692428625
    nsecs: 624283000
  frame_id: "laser_frame"
segments: 
  - 
    first_point: 
      x: -2.847951952611526
      y: -0.4660664171631249
      z: 0.0
    last_point: 
      x: -2.8907750663736396
      y: -0.6958262674123751
      z: 0.0
  - 
    first_point: 
      x: -0.43694769110878845
      y: -0.11235227930383672
      z: 0.0
    last_point: 
      x: -0.29475700161904794
      y: -0.22876582856827324
      z: 0.0
  - 
    first_point: 
      x: -0.4558466801099195
      y: -0.40535887194560766
      z: 0.0
    last_point: 
      x: -0.3934953835686814
      y: -0.7128967870251094
      z: 0.0
  - 
    first_point: 
      x: -0.590400964105235
      y: -1.408774990348271
      z: 0.0
    last_point: 
      x: -0.3695740070958391
      y: -1.5247000933284582
      z: 0.0
  - 
    first_point: 
      x: 0.09995858565791696
      y: 0.1234931747250282
      z: 0.0
    last_point: 
      x: -0.049276380732034414
      y: 0.1242752578762245
      z: 0.0
  - 
    first_point: 
      x: -0.7529932720144125
      y: 0.5061685270181385
      z: 0.0
    last_point: 
      x: -0.7510054884858284
      y: 0.13821042289625962
      z: 0.0
circles: 
  - 
    center: 
      x: -6.370860189854142
      y: -0.34884634958971256
      z: 0.0
    velocity: 
      x: 0.0
      y: 0.0
      z: 0.0
    radius: 0.14043566569199462
    true_radius: 0.04043566569199461
  - 
    center: 
      x: 0.09017499707134595
      y: -0.118796291046008
      z: 0.0
    velocity: 
      x: 0.0
      y: 0.0
      z: 0.0
    radius: 0.14174712955663993
    true_radius: 0.04174712955663992
---
header: 
  seq: 589
  stamp: 
    secs: 1692428625
    nsecs: 723483000
  frame_id: "laser_frame"
segments: 
  - 
    first_point: 
      x: -2.850937931063783
      y: -0.46591073154160095
      z: 0.0
    last_point: 
      x: -2.8859741910588403
      y: -0.7696732039509844
      z: 0.0
  - 
    first_point: 
      x: -0.40610605676737754
      y: -0.1286877164830474
      z: 0.0
    last_point: 
      x: -0.3005124890696269
      y: -0.2239954104799187
      z: 0.0
  - 
    first_point: 
      x: -0.4598956237835811
      y: -0.4056818053179192
      z: 0.0
    last_point: 
      x: -0.3818810603784747
      y: -0.7245150369565896
      z: 0.0
  - 
    first_point: 
      x: -0.6089598214265115
      y: -1.401733536047447
      z: 0.0
    last_point: 
      x: -0.3683084959621295
      y: -1.5224263720926654
      z: 0.0
  - 
    first_point: 
      x: 0.11090677908112023
      y: 0.11386472373643816
      z: 0.0
    last_point: 
      x: -0.06584565027794052
      y: 0.11728519048556282
      z: 0.0
  - 
    first_point: 
      x: -0.7351594137812014
      y: 0.5107718209435885
      z: 0.0
    last_point: 
      x: -0.7591535803170694
      y: 0.1398931482492302
      z: 0.0
circles: 
  - 
    center: 
      x: 0.08759019618162675
      y: -0.11735179960874359
      z: 0.0
    velocity: 
      x: 0.0
      y: 0.0
      z: 0.0
    radius: 0.13808479593424913
    true_radius: 0.03808479593424913
---
header: 
  seq: 590
  stamp: 
    secs: 1692428625
    nsecs: 822683000
  frame_id: "laser_frame"
segments: 
  - 
    first_point: 
      x: -2.853847004057084
      y: -0.4655701598835295
      z: 0.0
    last_point: 
      x: -2.8849497477715125
      y: -0.7320767784538508
      z: 0.0
  - 
    first_point: 
      x: -0.4046184175443077
      y: -0.12812620358032673
      z: 0.0
    last_point: 
      x: -0.29885656312080056
      y: -0.22872900123583784
      z: 0.0
  - 
    first_point: 
      x: -0.46083878151320384
      y: -0.40591781225392354
      z: 0.0
    last_point: 
      x: -0.38150357170968563
      y: -0.7245808451479955
      z: 0.0
  - 
    first_point: 
      x: -0.5871904106058756
      y: -1.39895215352359
      z: 0.0
    last_point: 
      x: -0.3681024358120905
      y: -1.52910350373378
      z: 0.0
  - 
    first_point: 
      x: 0.10636861862378547
      y: 0.12694699534324336
      z: 0.0
    last_point: 
      x: -0.0682383574814692
      y: 0.11553891518370034
      z: 0.0
  - 
    first_point: 
      x: -0.7465230691619054
      y: 0.49261762727150116
      z: 0.0
    last_point: 
      x: -0.759000805287234
      y: 0.1385476468556427
      z: 0.0
  - 
    first_point: 
      x: -6.369673702548904
      y: 0.4809024754905539
      z: 0.0
    last_point: 
      x: -6.3573122911375055
      y: 0.0006105268457156619
      z: 0.0
circles: 
  - 
    center: 
      x: 0.08741115368985175
      y: -0.1187100236556098
      z: 0.0
    velocity: 
      x: 0.0
      y: 0.0
      z: 0.0
    radius: 0.1400347343466093
    true_radius: 0.040034734346609285
---
header: 
  seq: 591
  stamp: 
    secs: 1692428625
    nsecs: 921883000
  frame_id: "laser_frame"
segments: 
  - 
    first_point: 
      x: -2.8475811961151662
      y: -0.4633723160740598
      z: 0.0
    last_point: 
      x: -2.890039886791947
      y: -0.7684892583573836
      z: 0.0
  - 
    first_point: 
      x: -0.4070337368046582
      y: -0.12800492164832655
      z: 0.0
    last_point: 
      x: -0.298417717168264
      y: -0.2280483084675646
      z: 0.0
  - 
    first_point: 
      x: -0.46104710226182016
      y: -0.4055077773793884
      z: 0.0
    last_point: 
      x: -0.37974874729258506
      y: -0.7243558695385587
      z: 0.0
  - 
    first_point: 
      x: -0.6098034333294972
      y: -1.4045565058028378
      z: 0.0
    last_point: 
      x: -0.36355260411081614
      y: -1.5292887575698428
      z: 0.0
  - 
    first_point: 
      x: 0.10682679302749107
      y: 0.11418741635720088
      z: 0.0
    last_point: 
      x: -0.06456753623387534
      y: 0.11848982792652597
      z: 0.0
  - 
    first_point: 
      x: -0.7485229248814388
      y: 0.4909874460190406
      z: 0.0
    last_point: 
      x: -0.7579010861680883
      y: 0.13807359544199763
      z: 0.0
circles: 
  - 
    center: 
      x: 0.0874743060958082
      y: -0.11666274416486921
      z: 0.0
    velocity: 
      x: 0.0
      y: 0.0
      z: 0.0
    radius: 0.1374368233101734
    true_radius: 0.037436823310173395
---
header: 
  seq: 592
  stamp: 
    secs: 1692428626
    nsecs:  21083000
  frame_id: "laser_frame"
segments: 
  - 
    first_point: 
      x: -2.8569872200572997
      y: -0.5385105608869823
      z: 0.0
    last_point: 
      x: -2.886008661576857
      y: -0.7710972085241592
      z: 0.0
  - 
    first_point: 
      x: -0.4108347525521488
      y: -0.1277212802835977
      z: 0.0
    last_point: 
      x: -0.29808691335397824
      y: -0.22737484495869678
      z: 0.0
  - 
    first_point: 
      x: -0.4606245835960065
      y: -0.4049245181672784
      z: 0.0
    last_point: 
      x: -0.3798299140719712
      y: -0.7243058157623684
      z: 0.0
  - 
    first_point: 
      x: -0.5924246245359792
      y: -1.4085058714643985
      z: 0.0
    last_point: 
      x: -0.36823604807262456
      y: -1.521262582282289
      z: 0.0
  - 
    first_point: 
      x: 0.10481636654606849
      y: 0.1305304272459404
      z: 0.0
    last_point: 
      x: -0.07064971501027646
      y: 0.11309139053113434
      z: 0.0
  - 
    first_point: 
      x: -0.7362350855948362
      y: 0.5040334362147328
      z: 0.0
    last_point: 
      x: -0.7639175654151166
      y: 0.14792070658279569
      z: 0.0
  - 
    first_point: 
      x: -6.40578826483897
      y: 0.480230327348392
      z: 0.0
    last_point: 
      x: -6.371616422135513
      y: -0.00046949623066343715
      z: 0.0
circles: 
  - 
    center: 
      x: 0.08294492955844371
      y: -0.11621411853424027
      z: 0.0
    velocity: 
      x: 0.0
      y: 0.0
      z: 0.0
    radius: 0.13585221107910764
    true_radius: 0.03585221107910763
---
header: 
  seq: 593
  stamp: 
    secs: 1692428626
    nsecs: 120283000
  frame_id: "laser_frame"
segments: 
  - 
    first_point: 
      x: -2.854876240199979
      y: -0.4651874497315574
      z: 0.0
    last_point: 
      x: -2.877226295313877
      y: -0.7700523646118023
      z: 0.0
  - 
    first_point: 
      x: -0.3930025715212986
      y: -0.1310908690445158
      z: 0.0
    last_point: 
      x: -0.2988188898417732
      y: -0.23044178380339836
      z: 0.0
  - 
    first_point: 
      x: -0.4607539568164015
      y: -0.39800007306004226
      z: 0.0
    last_point: 
      x: -0.38657067225793246
      y: -0.7186932409622582
      z: 0.0
  - 
    first_point: 
      x: -0.5875968296637021
      y: -1.4029761745540066
      z: 0.0
    last_point: 
      x: -0.36866379056929816
      y: -1.5222921400750569
      z: 0.0
  - 
    first_point: 
      x: 0.09880793408296144
      y: 0.13299732367912467
      z: 0.0
    last_point: 
      x: -0.06826218682759075
      y: 0.11258404965219077
      z: 0.0
  - 
    first_point: 
      x: -0.7363510098931687
      y: 0.5041623756348637
      z: 0.0
    last_point: 
      x: -0.7626048894973366
      y: 0.1330778586021184
      z: 0.0
  - 
    first_point: 
      x: -6.394236653426845
      y: 0.40029825711860456
      z: 0.0
    last_point: 
      x: -6.376473423645878
      y: 0.00046853703588346703
      z: 0.0
circles: 
  - 
    center: 
      x: 0.08623328393624524
      y: -0.11800543757809688
      z: 0.0
    velocity: 
      x: 0.0
      y: 0.0
      z: 0.0
    radius: 0.13892408983499205
    true_radius: 0.03892408983499204
---
header: 
  seq: 594
  stamp: 
    secs: 1692428626
    nsecs: 219283000
  frame_id: "laser_frame"
segments: 
  - 
    first_point: 
      x: -4.199699018330657
      y: -0.3646235239670777
      z: 0.0
    last_point: 
      x: -4.126525607349847
      y: -0.5669377882140858
      z: 0.0
  - 
    first_point: 
      x: -2.8537245124989177
      y: -0.5004886856718714
      z: 0.0
    last_point: 
      x: -2.8818662917940796
      y: -0.7687622034445875
      z: 0.0
  - 
    first_point: 
      x: -0.41488746385537106
      y: -0.12823599877557185
      z: 0.0
    last_point: 
      x: -0.29966677990106005
      y: -0.22209046331447452
      z: 0.0
  - 
    first_point: 
      x: -0.46044644589824096
      y: -0.40386511671381303
      z: 0.0
    last_point: 
      x: -0.38495107175472315
      y: -0.7256577323812825
      z: 0.0
  - 
    first_point: 
      x: -0.5862193930109564
      y: -1.4009271806981576
      z: 0.0
    last_point: 
      x: -0.3858060490703905
      y: -1.5133020311671816
      z: 0.0
  - 
    first_point: 
      x: 0.13098954059588808
      y: -0.08125086825238197
      z: 0.0
    last_point: 
      x: 0.016500721600018965
      y: 0.14407646458804121
      z: 0.0
  - 
    first_point: 
      x: -0.7385875752659439
      y: 0.5053996670697872
      z: 0.0
    last_point: 
      x: -0.7610345178461174
      y: 0.1415476644846077
      z: 0.0
  - 
    first_point: 
      x: -6.355008420408531
      y: 0.4781006521595387
      z: 0.0
    last_point: 
      x: -6.3487706081143385
      y: 0.0001865892184008867
      z: 0.0
circles: []
---
header: 
  seq: 595
  stamp: 
    secs: 1692428626
    nsecs: 318683000
  frame_id: "laser_frame"
segments: 
  - 
    first_point: 
      x: -2.8436494057529456
      y: -0.4991298914095838
      z: 0.0
    last_point: 
      x: -2.8853103796795914
      y: -0.7315876676045752
      z: 0.0
  - 
    first_point: 
      x: -0.4141219974971793
      y: -0.12688078908828704
      z: 0.0
    last_point: 
      x: -0.2974754315300859
      y: -0.2264851916342472
      z: 0.0
  - 
    first_point: 
      x: -0.46334633415900567
      y: -0.38692690438001937
      z: 0.0
    last_point: 
      x: -0.38071468657819657
      y: -0.7250144625114582
      z: 0.0
  - 
    first_point: 
      x: -0.5884536290479081
      y: -1.4031176330387747
      z: 0.0
    last_point: 
      x: -0.36692574797147787
      y: -1.5175883156444232
      z: 0.0
  - 
    first_point: 
      x: 0.10287136771084082
      y: 0.13571698923746686
      z: 0.0
    last_point: 
      x: -0.06975263312749894
      y: 0.11059534033923744
      z: 0.0
  - 
    first_point: 
      x: -0.7439380160535533
      y: 0.5030750115504219
      z: 0.0
    last_point: 
      x: -0.7579866913978871
      y: 0.13178787240058193
      z: 0.0
  - 
    first_point: 
      x: -6.399458786781856
      y: 0.39853096472037214
      z: 0.0
    last_point: 
      x: -6.364608409655881
      y: 0.0014394652377755783
      z: 0.0
circles: 
  - 
    center: 
      x: 0.08591843491540212
      y: -0.11765097705814259
      z: 0.0
    velocity: 
      x: 0.0
      y: 0.0
      z: 0.0
    radius: 0.13869660860129293
    true_radius: 0.038696608601292926
---
header: 
  seq: 596
  stamp: 
    secs: 1692428626
    nsecs: 417683000
  frame_id: "laser_frame"
segments: 
  - 
    first_point: 
      x: -2.853768673056395
      y: -0.4647613719320565
      z: 0.0
    last_point: 
      x: -2.877756422939363
      y: -0.7699968215482702
      z: 0.0
  - 
    first_point: 
      x: -0.41518114188388017
      y: -0.1250127830216123
      z: 0.0
    last_point: 
      x: -0.29683414605559905
      y: -0.22604127552257028
      z: 0.0
  - 
    first_point: 
      x: -0.4596496525959915
      y: -0.406097571436515
      z: 0.0
    last_point: 
      x: -0.38075632351281147
      y: -0.7243559496036831
      z: 0.0
  - 
    first_point: 
      x: -0.5895675488065967
      y: -1.4074535237658992
      z: 0.0
    last_point: 
      x: -0.36923033035210934
      y: -1.524009701766258
      z: 0.0
  - 
    first_point: 
      x: 0.10597759726974736
      y: 0.11506016546070927
      z: 0.0
    last_point: 
      x: -0.06634898824433244
      y: 0.115490794137635
      z: 0.0
  - 
    first_point: 
      x: -0.7473944093926815
      y: 0.49049636186932183
      z: 0.0
    last_point: 
      x: -0.7542806019819356
      y: 0.1407749325447751
      z: 0.0
circles: 
  - 
    center: 
      x: 0.09190624260594972
      y: -0.12077778449413325
      z: 0.0
    velocity: 
      x: 0.0
      y: 0.0
      z: 0.0
    radius: 0.1445472234385985
    true_radius: 0.04454722343859849
---
header: 
  seq: 597
  stamp: 
    secs: 1692428626
    nsecs: 516883000
  frame_id: "laser_frame"
segments: 
  - 
    first_point: 
      x: -2.8693045356002695
      y: -0.5030436172525531
      z: 0.0
    last_point: 
      x: -2.8799758333915952
      y: -0.7691367899070399
      z: 0.0
  - 
    first_point: 
      x: -0.4144677447594245
      y: -0.12209206789523197
      z: 0.0
    last_point: 
      x: -0.2954101626436608
      y: -0.23144737969988188
      z: 0.0
  - 
    first_point: 
      x: -0.46040624426303745
      y: -0.40628479125039435
      z: 0.0
    last_point: 
      x: -0.3853395806194977
      y: -0.7194646417879733
      z: 0.0
  - 
    first_point: 
      x: -0.5944443785457708
      y: -1.4127160987621428
      z: 0.0
    last_point: 
      x: -0.3667947847258462
      y: -1.5162215261188734
      z: 0.0
  - 
    first_point: 
      x: 0.10602360987712162
      y: 0.1150139058997809
      z: 0.0
    last_point: 
      x: -0.06623503357174343
      y: 0.11612497053693188
      z: 0.0
  - 
    first_point: 
      x: -0.7302050428341813
      y: 0.5080080438782706
      z: 0.0
    last_point: 
      x: -0.7595786620640702
      y: 0.14907742971598514
      z: 0.0
circles: 
  - 
    center: 
      x: 0.09057425688281381
      y: -0.11900030421085683
      z: 0.0
    velocity: 
      x: 0.0
      y: 0.0
      z: 0.0
    radius: 0.14208280311140883
    true_radius: 0.04208280311140883
---
header: 
  seq: 598
  stamp: 
    secs: 1692428626
    nsecs: 616083000
  frame_id: "laser_frame"
segments: 
  - 
    first_point: 
      x: -2.851195732354621
      y: -0.46558041917167037
      z: 0.0
    last_point: 
      x: -2.890097507135225
      y: -0.7697922076374141
      z: 0.0
  - 
    first_point: 
      x: -0.40356746756171025
      y: -0.12801027226349132
      z: 0.0
    last_point: 
      x: -0.29900430272069745
      y: -0.22910232415180556
      z: 0.0
  - 
    first_point: 
      x: -0.4555781096948475
      y: -0.4125618898204089
      z: 0.0
    last_point: 
      x: -0.3912062275664426
      y: -0.7135473691990681
      z: 0.0
  - 
    first_point: 
      x: -0.5886920475200296
      y: -1.406826968359562
      z: 0.0
    last_point: 
      x: -0.34627040244642254
      y: -1.5353632234734502
      z: 0.0
  - 
    first_point: 
      x: 0.10670407788945148
      y: 0.118734981264625
      z: 0.0
    last_point: 
      x: -0.047186787309252
      y: 0.126289321986444
      z: 0.0
  - 
    first_point: 
      x: -0.732728736843183
      y: 0.5094655800117307
      z: 0.0
    last_point: 
      x: -0.7602541264989074
      y: 0.14140333526018825
      z: 0.0
circles: 
  - 
    center: 
      x: 0.0895895225304862
      y: -0.11866950495515109
      z: 0.0
    velocity: 
      x: 0.0
      y: 0.0
      z: 0.0
    radius: 0.14099201125672683
    true_radius: 0.04099201125672683
---
header: 
  seq: 599
  stamp: 
    secs: 1692428626
    nsecs: 715283000
  frame_id: "laser_frame"
segments: 
  - 
    first_point: 
      x: -2.8517752711690525
      y: -0.4655701021717588
      z: 0.0
    last_point: 
      x: -2.8832242210688572
      y: -0.7697116706155528
      z: 0.0
  - 
    first_point: 
      x: -0.4058271038047049
      y: -0.1283542426267328
      z: 0.0
    last_point: 
      x: -0.29860553048019983
      y: -0.22843047963356977
      z: 0.0
  - 
    first_point: 
      x: -0.46306774471671835
      y: -0.4070021086532915
      z: 0.0
    last_point: 
      x: -0.37729940807253126
      y: -0.7257619856643014
      z: 0.0
  - 
    first_point: 
      x: -0.6097315352347294
      y: -1.4029749101909839
      z: 0.0
    last_point: 
      x: -0.34795531674188834
      y: -1.532530298046268
      z: 0.0
  - 
    first_point: 
      x: 0.10666757835993693
      y: 0.1165138232509771
      z: 0.0
    last_point: 
      x: -0.0664105979379697
      y: 0.11656102721421553
      z: 0.0
  - 
    first_point: 
      x: -0.7365991048495716
      y: 0.5104032310537213
      z: 0.0
    last_point: 
      x: -0.7611011651974907
      y: 0.14091627475664728
      z: 0.0
  - 
    first_point: 
      x: -6.389251538976608
      y: 0.4837693831524936
      z: 0.0
    last_point: 
      x: -6.336320725775015
      y: 0.004493435050896367
      z: 0.0
circles: 
  - 
    center: 
      x: 0.08459394488263744
      y: -0.11748694815246775
      z: 0.0
    velocity: 
      x: 0.0
      y: 0.0
      z: 0.0
    radius: 0.1372848276782203
    true_radius: 0.037284827678220306
---
header: 
  seq: 600
  stamp: 
    secs: 1692428626
    nsecs: 814483000
  frame_id: "laser_frame"
segments: 
  - 
    first_point: 
      x: -2.852188173730733
      y: -0.46518416344304375
      z: 0.0
    last_point: 
      x: -2.8850934097961667
      y: -0.7320141539020403
      z: 0.0
  - 
    first_point: 
      x: -0.4602516068380505
      y: -0.4062480646923745
      z: 0.0
    last_point: 
      x: -0.3860863532715589
      y: -0.7195478998105334
      z: 0.0
  - 
    first_point: 
      x: -0.6105453741909771
      y: -1.404766788548333
      z: 0.0
    last_point: 
      x: -0.34536735454567846
      y: -1.5368922203214983
      z: 0.0
  - 
    first_point: 
      x: 0.101863165090105
      y: 0.13487133366817075
      z: 0.0
    last_point: 
      x: -0.06966362205677491
      y: 0.1111459445890737
      z: 0.0
  - 
    first_point: 
      x: -0.7405807110882057
      y: 0.49336482016963523
      z: 0.0
    last_point: 
      x: -0.7584300402841809
      y: 0.14730247516327435
      z: 0.0
  - 
    first_point: 
      x: -6.412384325027051
      y: 0.4804733705052925
      z: 0.0
    last_point: 
      x: -6.366562478668604
      y: 0.08307235500872381
      z: 0.0
circles: 
  - 
    center: 
      x: -0.3686117283606729
      y: -0.2090545340629346
      z: 0.0
    velocity: 
      x: 0.0
      y: 0.0
      z: 0.0
    radius: 0.17220615785854296
    true_radius: 0.07220615785854295
  - 
    center: 
      x: 0.0874134886200164
      y: -0.1187569959600556
      z: 0.0
    velocity: 
      x: 0.0
      y: 0.0
      z: 0.0
    radius: 0.14006173716071374
    true_radius: 0.040061737160713734
---
header: 
  seq: 601
  stamp: 
    secs: 1692428626
    nsecs: 913683000
  frame_id: "laser_frame"
segments: 
  - 
    first_point: 
      x: -2.849503835407249
      y: -0.46521749361657266
      z: 0.0
    last_point: 
      x: -2.8889640850236
      y: -0.7695342904143894
      z: 0.0
  - 
    first_point: 
      x: -0.4083627829048425
      y: -0.12908154247929937
      z: 0.0
    last_point: 
      x: -0.30027784140524877
      y: -0.2233220777121482
      z: 0.0
  - 
    first_point: 
      x: -0.46183015297897695
      y: -0.40666062164397865
      z: 0.0
    last_point: 
      x: -0.37763797530884463
      y: -0.7264527570490424
      z: 0.0
  - 
    first_point: 
      x: -0.6127946336963328
      y: -1.4059357281132834
      z: 0.0
    last_point: 
      x: -0.38414657109330136
      y: -1.5095817510843796
      z: 0.0
  - 
    first_point: 
      x: 0.10667474724697637
      y: 0.1155225586592833
      z: 0.0
    last_point: 
      x: -0.06775923325090702
      y: 0.11762208121460067
      z: 0.0
  - 
    first_point: 
      x: -0.7397955462504108
      y: 0.5019063322681054
      z: 0.0
    last_point: 
      x: -0.7573413684490635
      y: 0.13973134545479948
      z: 0.0
  - 
    first_point: 
      x: -6.409304062646325
      y: 0.4822258023315073
      z: 0.0
    last_point: 
      x: -6.366593999085311
      y: 0.0011021840066653711
      z: 0.0
circles: 
  - 
    center: 
      x: -6.381482596702644
      y: -0.2686940772695445
      z: 0.0
    velocity: 
      x: 0.0
      y: 0.0
      z: 0.0
    radius: 0.12638719160673648
    true_radius: 0.02638719160673647
  - 
    center: 
      x: 0.0874599565870434
      y: -0.11866617449148616
      z: 0.0
    velocity: 
      x: 0.0
      y: 0.0
      z: 0.0
    radius: 0.14006595158111076
    true_radius: 0.04006595158111076
---
header: 
  seq: 602
  stamp: 
    secs: 1692428627
    nsecs:  12883000
  frame_id: "laser_frame"
segments: 
  - 
    first_point: 
      x: -2.8579853527999504
      y: -0.5020075781960185
      z: 0.0
    last_point: 
      x: -2.885042183903187
      y: -0.7699028358174039
      z: 0.0
  - 
    first_point: 
      x: -0.40373308815909265
      y: -0.1281335116154285
      z: 0.0
    last_point: 
      x: -0.2990394181566974
      y: -0.22910640112537972
      z: 0.0
  - 
    first_point: 
      x: -0.46059106367626274
      y: -0.40632998624226846
      z: 0.0
    last_point: 
      x: -0.384321171677274
      y: -0.7193416338909511
      z: 0.0
  - 
    first_point: 
      x: -0.614663335626024
      y: -1.4080526938920985
      z: 0.0
    last_point: 
      x: -0.34556641223020645
      y: -1.5221439462766102
      z: 0.0
  - 
    first_point: 
      x: 0.1526707582324166
      y: -0.058181468108124725
      z: 0.0
    last_point: 
      x: 0.016906087090962234
      y: 0.14371573060027687
      z: 0.0
  - 
    first_point: 
      x: -0.743664620244573
      y: 0.4928661933108119
      z: 0.0
    last_point: 
      x: -0.7575413925318237
      y: 0.1536467511789628
      z: 0.0
  - 
    first_point: 
      x: -6.389393828911762
      y: 0.4803960806018474
      z: 0.0
    last_point: 
      x: -6.38247208439386
      y: 0.0003256864018383111
      z: 0.0
circles: []
---
header: 
  seq: 603
  stamp: 
    secs: 1692428627
    nsecs: 112083000
  frame_id: "laser_frame"
segments: 
  - 
    first_point: 
      x: -2.8522277053505456
      y: -0.4655999493906334
      z: 0.0
    last_point: 
      x: -2.875983541703686
      y: -0.7687984145285827
      z: 0.0
  - 
    first_point: 
      x: -0.3947869209327854
      y: -0.13064554185961058
      z: 0.0
    last_point: 
      x: -0.2965487235610413
      y: -0.23455838100202334
      z: 0.0
  - 
    first_point: 
      x: -0.45638203085918294
      y: -0.4132462845725028
      z: 0.0
    last_point: 
      x: -0.392004665110378
      y: -0.7145053429220287
      z: 0.0
  - 
    first_point: 
      x: -0.5923119341047355
      y: -1.409659042535204
      z: 0.0
    last_point: 
      x: -0.3686553160104606
      y: -1.5216151624828191
      z: 0.0
  - 
    first_point: 
      x: 0.1310207028932613
      y: -0.06808893358238606
      z: 0.0
    last_point: 
      x: 0.013102676225816097
      y: 0.1457735994994253
      z: 0.0
  - 
    first_point: 
      x: -0.7380995571946721
      y: 0.5104978131419364
      z: 0.0
    last_point: 
      x: -0.7582518144334569
      y: 0.1470156028815239
      z: 0.0
  - 
    first_point: 
      x: -6.384712971921962
      y: 0.48234200826032647
      z: 0.0
    last_point: 
      x: -6.357189610663513
      y: 0.0014781805507882322
      z: 0.0
circles: []
---
header: 
  seq: 604
  stamp: 
    secs: 1692428627
    nsecs: 211283000
  frame_id: "laser_frame"
segments: 
  - 
    first_point: 
      x: -2.847081182963794
      y: -0.4995152179506908
      z: 0.0
    last_point: 
      x: -2.885136315734122
      y: -0.7691526682101502
      z: 0.0
  - 
    first_point: 
      x: -0.4151612569146599
      y: -0.12631677691532478
      z: 0.0
    last_point: 
      x: -0.2990004042407292
      y: -0.22175547364922987
      z: 0.0
  - 
    first_point: 
      x: -0.4640041102531383
      y: -0.3983250257201509
      z: 0.0
    last_point: 
      x: -0.3782667323034773
      y: -0.725784019135446
      z: 0.0
  - 
    first_point: 
      x: -0.5869912073294759
      y: -1.3985346768210394
      z: 0.0
    last_point: 
      x: -0.38568689531319483
      y: -1.5094638625038117
      z: 0.0
  - 
    first_point: 
      x: 0.10574339122704057
      y: 0.11724521038707189
      z: 0.0
    last_point: 
      x: -0.06681659807716982
      y: 0.1147024329049376
      z: 0.0
  - 
    first_point: 
      x: -0.7412171921007994
      y: 0.5080540501443106
      z: 0.0
    last_point: 
      x: -0.7588586841201499
      y: 0.14062565712983802
      z: 0.0
circles: 
  - 
    center: 
      x: -6.381423279265641
      y: -0.3467115370914697
      z: 0.0
    velocity: 
      x: 0.0
      y: 0.0
      z: 0.0
    radius: 0.12050243726957992
    true_radius: 0.020502437269579912
  - 
    center: 
      x: 0.09020092743346858
      y: -0.119667686949009
      z: 0.0
    velocity: 
      x: 0.0
      y: 0.0
      z: 0.0
    radius: 0.14191569380271205
    true_radius: 0.04191569380271204
---
header: 
  seq: 605
  stamp: 
    secs: 1692428627
    nsecs: 310483000
  frame_id: "laser_frame"
segments: 
  - 
    first_point: 
      x: -2.848025954485559
      y: -0.50061220604734
      z: 0.0
    last_point: 
      x: -2.881584745601235
      y: -0.7315964622963721
      z: 0.0
  - 
    first_point: 
      x: -0.41147733601215125
      y: -0.12810637181132625
      z: 0.0
    last_point: 
      x: -0.29777433921636326
      y: -0.22709907727797018
      z: 0.0
  - 
    first_point: 
      x: -0.46145414954528546
      y: -0.4060804615284282
      z: 0.0
    last_point: 
      x: -0.3799707672426999
      y: -0.726753600793693
      z: 0.0
  - 
    first_point: 
      x: -0.5913877585431419
      y: -1.4038224218401039
      z: 0.0
    last_point: 
      x: -0.36657800134123336
      y: -1.514990149870102
      z: 0.0
  - 
    first_point: 
      x: 0.10875536999880461
      y: 0.13317059987282986
      z: 0.0
    last_point: 
      x: -0.06930242710155189
      y: 0.11235994327121797
      z: 0.0
  - 
    first_point: 
      x: -0.7448898489262233
      y: 0.5044149593846221
      z: 0.0
    last_point: 
      x: -0.7562599842308758
      y: 0.1471117085854381
      z: 0.0
  - 
    first_point: 
      x: -6.413074659866911
      y: 0.39764287852540453
      z: 0.0
    last_point: 
      x: -6.344302201896997
      y: 0.07441361160450913
      z: 0.0
circles: 
  - 
    center: 
      x: 0.08620990929449501
      y: -0.11823780052197234
      z: 0.0
    velocity: 
      x: 0.0
      y: 0.0
      z: 0.0
    radius: 0.1388707551419741
    true_radius: 0.038870755141974106
---
header: 
  seq: 606
  stamp: 
    secs: 1692428627
    nsecs: 409883000
  frame_id: "laser_frame"
segments: 
  - 
    first_point: 
      x: -2.856135982793094
      y: -0.46544917217668436
      z: 0.0
    last_point: 
      x: -2.8842725951990738
      y: -0.7703961851686598
      z: 0.0
  - 
    first_point: 
      x: -0.4064170134575981
      y: -0.128148827569133
      z: 0.0
    last_point: 
      x: -0.29845092097807213
      y: -0.22816232981758158
      z: 0.0
  - 
    first_point: 
      x: -0.46165462199155677
      y: -0.4066104376120188
      z: 0.0
    last_point: 
      x: -0.37821614537145043
      y: -0.7272931669771091
      z: 0.0
  - 
    first_point: 
      x: -0.6134804328466755
      y: -1.4073957526054857
      z: 0.0
    last_point: 
      x: -0.36438916133775845
      y: -1.5204882149816725
      z: 0.0
  - 
    first_point: 
      x: 0.10744505684623329
      y: 0.11478928068705056
      z: 0.0
    last_point: 
      x: -0.06623593785051303
      y: 0.115912391903679
      z: 0.0
  - 
    first_point: 
      x: -0.7421089438282398
      y: 0.49275800403681475
      z: 0.0
    last_point: 
      x: -0.7616578853982513
      y: 0.1558795449580817
      z: 0.0
circles: 
  - 
    center: 
      x: 0.0875209348269306
      y: -0.11670905729830156
      z: 0.0
    velocity: 
      x: 0.0
      y: 0.0
      z: 0.0
    radius: 0.1374450030170816
    true_radius: 0.03744500301708159
---
header: 
  seq: 607
  stamp: 
    secs: 1692428627
    nsecs: 509083000
  frame_id: "laser_frame"
segments: 
  - 
    first_point: 
      x: -2.846341630366709
      y: -0.49997573251334004
      z: 0.0
    last_point: 
      x: -2.8823863153738287
      y: -0.7688122680561138
      z: 0.0
  - 
    first_point: 
      x: -0.4145255862410794
      y: -0.12412737570344863
      z: 0.0
    last_point: 
      x: -0.29520060873454046
      y: -0.23078671816873553
      z: 0.0
  - 
    first_point: 
      x: -0.4586627677601061
      y: -0.4059009506030219
      z: 0.0
    last_point: 
      x: -0.3895355561455228
      y: -0.7205542225096889
      z: 0.0
  - 
    first_point: 
      x: -0.5930310202595858
      y: -1.4091856972862649
      z: 0.0
    last_point: 
      x: -0.367573850352882
      y: -1.5153788814871314
      z: 0.0
  - 
    first_point: 
      x: 0.10814853431351369
      y: 0.12846621388041998
      z: 0.0
    last_point: 
      x: -0.06859098771070583
      y: 0.11371598463582236
      z: 0.0
  - 
    first_point: 
      x: -0.7431698548988779
      y: 0.49164075884531117
      z: 0.0
    last_point: 
      x: -0.7536628445083525
      y: 0.14580389199850702
      z: 0.0
  - 
    first_point: 
      x: -6.400264795001266
      y: 0.48090028319159983
      z: 0.0
    last_point: 
      x: -6.388567345293059
      y: -6.15673754102095e-05
      z: 0.0
circles: 
  - 
    center: 
      x: 0.09036287511134314
      y: -0.1185673708084359
      z: 0.0
    velocity: 
      x: 0.0
      y: 0.0
      z: 0.0
    radius: 0.1418110011227785
    true_radius: 0.041811001122778496
---
header: 
  seq: 608
  stamp: 
    secs: 1692428627
    nsecs: 608283000
  frame_id: "laser_frame"
segments: 
  - 
    first_point: 
      x: -2.845539072977486
      y: -0.5000126347942562
      z: 0.0
    last_point: 
      x: -2.8796309881549433
      y: -0.7314840474223467
      z: 0.0
  - 
    first_point: 
      x: -0.38180207799255395
      y: -0.13640976328568682
      z: 0.0
    last_point: 
      x: -0.29800456785246915
      y: -0.23723397376907282
      z: 0.0
  - 
    first_point: 
      x: -0.4603526857879964
      y: -0.39742880816808096
      z: 0.0
    last_point: 
      x: -0.3856577044236313
      y: -0.7192982590659628
      z: 0.0
  - 
    first_point: 
      x: -0.5888389076666148
      y: -1.401823659630724
      z: 0.0
    last_point: 
      x: -0.3675010393966594
      y: -1.5181225995118723
      z: 0.0
  - 
    first_point: 
      x: 0.09652215156731798
      y: 0.1271250592102432
      z: 0.0
    last_point: 
      x: -0.05010941321060575
      y: 0.1232297709884693
      z: 0.0
  - 
    first_point: 
      x: -0.739292431780011
      y: 0.5068981549577293
      z: 0.0
    last_point: 
      x: -0.7572008231004732
      y: 0.1402863404163097
      z: 0.0
circles: 
  - 
    center: 
      x: -6.367757118097012
      y: -0.352402358179961
      z: 0.0
    velocity: 
      x: 0.0
      y: 0.0
      z: 0.0
    radius: 0.13352670646577264
    true_radius: 0.03352670646577263
  - 
    center: 
      x: 0.0918694520655049
